[
  {
    "latitude": 32.118972,
    "longitude": 119.360646,
    "name": "Jiangsu University of Science and Technology",
    "key": "4d1bcc6c-6999-472d-977a-0a1d0cda25aa",
    "active": true,
    "displayOnNHCPortal": true
  },
  {
    "latitude": 26.461067,
    "longitude": 127.830985,
    "name": "Okinawa Institute for Science and Technology",
    "key": "e41d247d-dede-4a56-a82f-29acd4be2313",
    "active": true,
    "displayOnNHCPortal": true
  },
  {
    "latitude": -36.904333,
    "longitude": -60.306702,
    "name": "INCUAPA",
    "key": "cec5fbfd-dec4-44ad-8bc2-126322ff2524",
    "active": true,
    "displayOnNHCPortal": true
  },
  {
    "latitude": -8.815103,
    "longitude": 13.238416,
    "name": "Museu Nacional de História Natural",
    "key": "131459ac-1c64-499b-9973-2fd9c00dc327",
    "active": true,
    "displayOnNHCPortal": true
  },
  {
    "latitude": 14.605,
    "longitude": -90.49,
    "name": "Centro de Estudios Ambientales y Biodiversidad (CEAB)",
    "key": "df15036a-554c-4266-b895-905b0929d096",
    "active": true,
    "displayOnNHCPortal": true
  },
  {
    "latitude": 45.557,
    "longitude": -73.556,
    "name": "Espace pour la vie",
    "key": "bc356e35-e4e1-4365-86ee-aa324284560a",
    "active": true,
    "displayOnNHCPortal": true
  },
  {
    "latitude": 48.640503,
    "longitude": -68.15597,
    "name": "Maurice Lamontagne Institute",
    "key": "2ae7293d-9c89-46ee-9aa8-ea116dacad3f",
    "numberSpecimens": 12200,
    "active": true,
    "displayOnNHCPortal": true
  },
  {
    "latitude": 27.683302,
    "longitude": 85.287316,
    "name": "Museum of Zoology, Central Department of Zoology",
    "key": "53a694c3-1c30-4aaf-a20f-593d6a791d89",
    "numberSpecimens": 4100,
    "active": true,
    "displayOnNHCPortal": true
  },
  {
    "latitude": 27.714668,
    "longitude": 85.287955,
    "name": "Natural History Museum, Tribhuvan University",
    "key": "3448c872-18f9-4d70-8237-148cd1d87b3f",
    "active": true,
    "displayOnNHCPortal": true
  },
  {
    "latitude": 6.418684,
    "longitude": 2.327128,
    "name": "The International Institute of Tropical Agriculture (IITA)-Benin",
    "key": "2bf398f7-44e2-4a02-8134-4f96b8c2ca95",
    "active": true,
    "displayOnNHCPortal": true
  },
  {
    "latitude": -1.240778,
    "longitude": -78.629861,
    "name": "Museo de Universidad Técnica de Ambato",
    "key": "23e0159b-30ed-4968-803c-190d60e11f20",
    "active": true,
    "displayOnNHCPortal": true
  },
  {
    "latitude": -0.11146,
    "longitude": -78.495555,
    "name": "Herbario Padre Luis Sodiro (QPLS)",
    "key": "57a6e7b4-9fde-4efb-be3b-b800a6dd72f5",
    "numberSpecimens": 13500,
    "active": true,
    "displayOnNHCPortal": true
  },
  {
    "latitude": -2.19852,
    "longitude": -80.86374,
    "name": "Museo Náutico Farallón Dillon",
    "key": "e2b05470-4927-4d35-8e6f-4b82fbd8e8e3",
    "active": true,
    "displayOnNHCPortal": true
  },
  {
    "name": "Museo de fauna Silvestre del Cantón Montúfar",
    "key": "163cbdcb-5aca-4746-967a-6dd254c99a1f",
    "active": true,
    "displayOnNHCPortal": true
  },
  {
    "name": "Museo Rumiñahui",
    "key": "4f8530a9-9d35-4290-a4c4-ca446d0800a3",
    "active": true,
    "displayOnNHCPortal": true
  },
  {
    "latitude": -0.21024,
    "longitude": -78.49172,
    "name": "Fungario QCAM de la Pontificia Universidad Católica del Ecuador",
    "key": "d4e731a5-38fc-4108-9bb7-f16f0ff55a91",
    "active": true,
    "displayOnNHCPortal": true
  },
  {
    "latitude": -1.251627,
    "longitude": -78.637342,
    "name": "Museo Héctor Vásquez Salazar de la Unidad Educativa Bolivar",
    "key": "aba8fa5c-1e47-4d86-a93a-7f267784e478",
    "active": true,
    "displayOnNHCPortal": true
  },
  {
    "latitude": 14.610177,
    "longitude": 120.987091,
    "name": "University of Santo Tomas Museum",
    "key": "6c782bd1-8965-4911-8ae3-5849ff812d30",
    "active": true,
    "displayOnNHCPortal": true
  },
  {
    "name": "Herbario William Kirby del Instituto Superior Tecnológico Sudamericano",
    "key": "10d0f31d-3b6e-4125-b96c-7d8fadf6e184",
    "active": true,
    "displayOnNHCPortal": true
  },
  {
    "latitude": -0.12053,
    "longitude": -78.49839,
    "name": "Museo de Zoología, Universidad Tecnológica Indoamérica (MZUTI)",
    "key": "493fe524-a02f-4552-b8cf-1aa9560d1bc0",
    "active": true,
    "displayOnNHCPortal": true
  },
  {
    "latitude": 11.2267,
    "longitude": -74.187,
    "name": "Universidad del Magdalena",
    "key": "139adf78-6c9d-4ef3-bc82-25995ad945b6",
    "active": true,
    "displayOnNHCPortal": true
  },
  {
    "latitude": -7.209157,
    "longitude": -35.917013,
    "name": "Universidade Estadual da Paraíba",
    "key": "f613f2d6-6ece-4626-a032-a829cf59b7b7",
    "active": true,
    "displayOnNHCPortal": true
  },
  {
    "name": "Centro de Investigación en Enfermedades Infecciosas y Vectoriales",
    "key": "c89ae698-eeb8-4410-b579-8f548f0e315c",
    "active": true,
    "displayOnNHCPortal": true
  },
  {
    "latitude": 0.416576,
    "longitude": 33.207008,
    "name": "National Fisheries Resources Research Institute (NaFIRRI)",
    "key": "46bd6369-a61e-49c4-9876-b97d8d33e55e",
    "numberSpecimens": 5000,
    "active": true,
    "displayOnNHCPortal": true
  },
  {
    "latitude": -0.130806,
    "longitude": -0.050125,
    "name": "Niger Delta University",
    "key": "b16177b5-0ba5-42e4-a700-b03b68677a4b",
    "active": true,
    "displayOnNHCPortal": true
  },
  {
    "latitude": 33.948806,
    "longitude": 35.633823,
    "name": "Lebanese Marine and Wildlife Museum",
    "key": "45e5c4f1-59bd-49c1-8002-19781e1d41a6",
    "numberSpecimens": 5000,
    "active": true,
    "displayOnNHCPortal": true
  },
  {
    "latitude": -3.9872,
    "longitude": -79.19671,
    "name": "Herbario HUTPL de la Universidad Técnica Particular de Loja",
    "key": "ee607aca-e1ea-4905-9241-8249f4c25bca",
    "active": true,
    "displayOnNHCPortal": true
  },
  {
    "latitude": 53.208875,
    "longitude": -0.117766,
    "name": "Sir Joseph Banks Centre",
    "key": "d0644602-174a-40cf-a072-2004031205b4",
    "active": true,
    "displayOnNHCPortal": true
  },
  {
    "latitude": 10.688729,
    "longitude": -61.615669,
    "name": "Institute of Marine Affairs",
    "key": "a552484e-ff79-4fa8-a114-91d46a2d9ced",
    "numberSpecimens": 1200,
    "active": true,
    "displayOnNHCPortal": true
  },
  {
    "name": "Museo de Ballenas",
    "key": "4bbd6ff8-6802-4fe6-b8a2-d871bbc61510",
    "active": true,
    "displayOnNHCPortal": true
  },
  {
    "latitude": 54.349288,
    "longitude": -6.649387,
    "name": "Armagh County Museum",
    "key": "8e10f165-4f9a-4a00-b654-f61de28fa12a",
    "numberSpecimens": 2500,
    "active": true,
    "displayOnNHCPortal": true
  },
  {
    "name": "Dorking Museum & Heritage Centre",
    "key": "2e6deef9-61a0-4258-8411-43350edbcfbd",
    "active": true,
    "displayOnNHCPortal": true
  },
  {
    "latitude": -2.18278,
    "longitude": -79.892163,
    "name": "Instituto Nacional de Investigación en Salud Pública Dr. Leopoldo Izquieta Pérez",
    "key": "d4ab2692-b375-4af1-9a05-a52ba7129510",
    "active": true,
    "displayOnNHCPortal": true
  },
  {
    "latitude": 51.293101,
    "longitude": -2.447327,
    "name": "Radstock Museum",
    "key": "08f34641-b346-4c03-a8b2-3b605bc94a93",
    "active": true,
    "displayOnNHCPortal": true
  },
  {
    "name": "Micoteca para la Conservación de la Biodiversidad Ruth Moore de la Universidad Católica de Cuenca",
    "key": "8b62d15f-5052-44d7-8a6c-a8516ba6e5b2",
    "active": true,
    "displayOnNHCPortal": true
  },
  {
    "name": "Museo de Macroinvertebrados Acuáticos CIITT de la Universidad Católica de Cuenca",
    "key": "f52ded1f-6ce3-4644-9bbf-4dd3cc70da17",
    "active": true,
    "displayOnNHCPortal": true
  },
  {
    "latitude": 0.165942,
    "longitude": -78.87798,
    "name": "Mashpi Entomology Museum",
    "key": "7280bb52-e453-4d4f-8ffd-d1f508710be0",
    "active": true,
    "displayOnNHCPortal": true
  },
  {
    "name": "Jardín Botánico Reinaldo Espinosa de la Universidad Nacional de Loja",
    "key": "235fdbea-4d72-48dd-a9c2-12ec74e47575",
    "active": true,
    "displayOnNHCPortal": true
  },
  {
    "latitude": 49.77031,
    "longitude": 73.125875,
    "name": "karaganda buketov university",
    "key": "7390493b-4eb6-42df-8a3e-4fa6e081c01e",
    "active": true,
    "displayOnNHCPortal": true
  },
  {
    "name": "Herbario MAT de la Universidad Politécnica Estatal del Carchi",
    "key": "890eee66-ff0d-4636-a703-501d5a07c75a",
    "numberSpecimens": 308,
    "active": true,
    "displayOnNHCPortal": true
  },
  {
    "latitude": -0.22732,
    "longitude": -78.49915,
    "name": "Instituto Nacional de Investigaciones Agropecuarias",
    "key": "55d5c3ce-7a90-49ae-b68f-4f0d13b94a15",
    "active": true,
    "displayOnNHCPortal": true
  },
  {
    "name": "Herbario de la Universidad Técnica del Norte",
    "key": "f88e0fc5-54b8-4865-8eb0-d60652f7604f",
    "active": true,
    "displayOnNHCPortal": true
  },
  {
    "latitude": -2.91965,
    "longitude": -79.0021,
    "name": "Museo de Zoología de la Universidad del Azuay (MZUA)",
    "key": "5c476e90-e212-4b77-bfd0-40e84203f4cf",
    "active": true,
    "displayOnNHCPortal": true
  },
  {
    "latitude": 35.698871,
    "longitude": 139.518691,
    "name": "Tokyo University of Agriculture and Technology",
    "key": "b4ae7dee-7fe8-4b9c-8905-10bad97ea217",
    "active": true,
    "displayOnNHCPortal": true
  },
  {
    "name": "MUSEO DE LA ASOCIACIÓN DE TURISMO MINDALAE ADVENTURE",
    "key": "708000d4-f559-42c3-b774-d3d76728a907",
    "active": true,
    "displayOnNHCPortal": true
  },
  {
    "name": "Corporación Universitaria Minuto de Dios (UNIMINUTO)",
    "key": "2c27d490-e00f-484f-8992-3784665c263a",
    "active": true,
    "displayOnNHCPortal": true
  },
  {
    "latitude": 28.0019,
    "longitude": 120.6309,
    "name": "Zhejiang Institute of Subtropical Crops Herbarium",
    "key": "16fb2818-c16c-4e76-9202-919fd57fa092",
    "active": true,
    "displayOnNHCPortal": true
  },
  {
    "latitude": -2.55638,
    "longitude": -44.30965,
    "name": "Universidade Federal do Maranhão - UFMA",
    "key": "2e606365-0905-458e-9f67-35af1bcd43fd",
    "active": true,
    "displayOnNHCPortal": true
  },
  {
    "latitude": 4.446176,
    "longitude": 97.972837,
    "name": "Program Studi Biologi, Universitas Samudra",
    "key": "ecca9290-1e58-4cad-bb44-2ce58661aec7",
    "active": true,
    "displayOnNHCPortal": true
  },
  {
    "latitude": 51.83209,
    "longitude": 10.79292,
    "name": "Harz National Park",
    "key": "6c1f002a-32e8-4655-b4a5-6d33ded51626",
    "active": true,
    "displayOnNHCPortal": true
  },
  {
    "latitude": 31.706317,
    "longitude": 35.202662,
    "name": "Bethlehem University",
    "key": "660bb39a-a01a-432d-b72f-a8c8d66197b0",
    "active": true,
    "displayOnNHCPortal": true
  },
  {
    "latitude": 21.0444,
    "longitude": 105.7983,
    "name": "Joint Vietnam-Russia Tropical Science and Technology Research Centre",
    "key": "acc13fa7-22eb-41ec-9a61-5ca26dd7ec6b",
    "active": true,
    "displayOnNHCPortal": true
  },
  {
    "latitude": 5.43869,
    "longitude": 100.289,
    "name": "JABATAN TAMAN BOTANI PULAU PINANG",
    "key": "243b08c2-03b1-4b08-84df-0a2286618c07",
    "active": true,
    "displayOnNHCPortal": true
  },
  {
    "latitude": 4.446176,
    "longitude": 97.972837,
    "name": "Program Studi Biologi, Universitas Samudra",
    "key": "37c6400b-781e-428c-a2ac-7168ba497a4e",
    "active": true,
    "displayOnNHCPortal": true
  },
  {
    "latitude": 34.359688,
    "longitude": 73.471054,
    "name": "Government Post Graduate College for Boys Muzaffarabad",
    "key": "a429fd0b-633f-4a4c-8002-7364d4367b4d",
    "active": true,
    "displayOnNHCPortal": true
  },
  {
    "latitude": 34.171959,
    "longitude": 73.208598,
    "name": "Government Post Graduate College Mandian Abbottabad",
    "key": "106646b6-de50-44c7-b270-d31e780161f3",
    "active": true,
    "displayOnNHCPortal": true
  },
  {
    "latitude": 44.1,
    "longitude": 43.1,
    "name": "Perkalsky Arboretum of the Komarov Botanical Institute of RAS",
    "key": "2bf4822a-6648-49f1-a26a-a6764349a503",
    "active": true,
    "displayOnNHCPortal": true
  },
  {
    "latitude": 37.42078,
    "longitude": 112.57649,
    "name": "Shanxi Agricultural University",
    "key": "e6e3a8eb-16cb-4c1a-b886-afe8d1ba2526",
    "active": true,
    "displayOnNHCPortal": true
  },
  {
    "latitude": 44.663172,
    "longitude": -74.973884,
    "name": "SUNY Potsdam",
    "key": "869ea3d9-1e39-48c8-a5c4-cad1995561af",
    "active": true,
    "displayOnNHCPortal": true
  },
  {
    "latitude": 27.31522,
    "longitude": 88.601467,
    "name": "Regional Ayurveda Research Institute",
    "key": "32f9dca8-590a-44c4-9309-546fcc78e3db",
    "active": true,
    "displayOnNHCPortal": true
  },
  {
    "latitude": -12.081536,
    "longitude": -76.942978,
    "name": "UNIVERSIDAD NACIONAL AGRARIA LA MOLINA",
    "key": "13e48177-26e1-49b6-94ec-7c2ff011d328",
    "active": true,
    "displayOnNHCPortal": true
  },
  {
    "latitude": -30.33375,
    "longitude": -54.362525,
    "name": "Fundação Universidade Federal do Pampa",
    "key": "3580122b-4a80-47e7-8cd1-e1e8db5cd6bd",
    "active": true,
    "displayOnNHCPortal": true
  },
  {
    "latitude": 7.25942,
    "longitude": 80.597079,
    "name": "University of Peradeniya",
    "key": "b989d490-cc82-4678-a8fd-976bd4dc5bad",
    "active": true,
    "displayOnNHCPortal": true
  },
  {
    "latitude": 36.572957,
    "longitude": -82.234198,
    "name": "The Nature Center at Steele Creek Park",
    "key": "fe28234f-ec6a-4979-8d58-0535d4988618",
    "active": true,
    "displayOnNHCPortal": true
  },
  {
    "latitude": 54.782311,
    "longitude": 8.821595,
    "name": "Naturkundemuseum Niebüll",
    "key": "bb52d06b-a9ed-4b9c-866c-fd6c757ea9b0",
    "active": true,
    "displayOnNHCPortal": true
  },
  {
    "latitude": 42.6715,
    "longitude": -83.2167,
    "name": "Oakland University",
    "key": "7de7d8d6-b486-4896-b4b9-986ba97709e0",
    "active": true,
    "displayOnNHCPortal": true
  },
  {
    "latitude": 16.68952,
    "longitude": 74.22064,
    "name": "The New College, Kolhapur",
    "key": "3ec0b21f-17b2-4814-acc1-808d35024a23",
    "active": true,
    "displayOnNHCPortal": true
  },
  {
    "latitude": 34.148,
    "longitude": 73.22,
    "name": "Government Post Graduate College No. 1 Abbottabad",
    "key": "b24a9eb5-7501-4b7a-8e84-8b5735aface9",
    "active": true,
    "displayOnNHCPortal": true
  },
  {
    "latitude": 38.32442,
    "longitude": 70.817871,
    "name": "Tajik National University",
    "key": "9250e18c-ccb3-4e06-8bcc-2298250cefe7",
    "active": true,
    "displayOnNHCPortal": true
  },
  {
    "name": "Tajik State Pedagogical University after named S. Aini",
    "key": "bcab56ae-0468-40f1-84af-eb6a5270113b",
    "active": true,
    "displayOnNHCPortal": true
  },
  {
    "name": "Khatlon Scientific Center of the National Academy of Sciences of Tajikistan, Kulob",
    "key": "46468870-c6a4-42e2-a6b8-8320ee5030c8",
    "active": true,
    "displayOnNHCPortal": true
  },
  {
    "latitude": 41.11178,
    "longitude": 16.881374,
    "name": "Consiglio Nazionale delle Ricerche, Istituto di BioScienze e BioRisorse",
    "key": "a2561001-476a-4aa3-a741-a68d4feaf094",
    "numberSpecimens": 61800,
    "active": true,
    "displayOnNHCPortal": true
  },
  {
    "latitude": 50.36419,
    "longitude": -4.13917,
    "name": "Marine Biological Association",
    "key": "c40e8d01-a969-4fe0-b827-c69679ab42db",
    "active": true,
    "displayOnNHCPortal": true
  },
  {
    "latitude": -7.158651,
    "longitude": -34.872751,
    "name": "Instituto de Biologia de Solo",
    "key": "35a10a88-03b2-48db-8284-6566a132de33",
    "active": true,
    "displayOnNHCPortal": true
  },
  {
    "name": "Lagos State University",
    "key": "9b720da7-9a47-4c82-a9c5-48d2b6b748ce",
    "active": true,
    "displayOnNHCPortal": true
  },
  {
    "latitude": 8.8471,
    "longitude": 7.8776,
    "name": "Nasarawa State University Keffi",
    "key": "f16f04d2-b590-466a-aebd-b61112962311",
    "active": true,
    "displayOnNHCPortal": true
  },
  {
    "latitude": 6.245875,
    "longitude": 7.119897,
    "name": "Nnamdi Azikiwe University",
    "key": "53393219-bea0-4c2f-8847-daf0c69b164e",
    "numberSpecimens": 500,
    "active": true,
    "displayOnNHCPortal": true
  },
  {
    "latitude": 5.03303,
    "longitude": 8.31375,
    "name": "University of Calabar",
    "key": "2678c7a4-bc0b-445f-b377-fc346547ad70",
    "active": true,
    "displayOnNHCPortal": true
  },
  {
    "latitude": 43.211443,
    "longitude": 141.001263,
    "name": "Otaru Museum",
    "key": "012fbec2-1c94-40ce-b52a-450496d77b28",
    "numberSpecimens": 9500,
    "active": true,
    "displayOnNHCPortal": true
  },
  {
    "latitude": -22.316698,
    "longitude": -46.32963,
    "name": "Instituto Federal de Educação, Ciência e Tecnologia do Sul de Minas Gerais - IFSULDEMINAS - Campus Inconfidentes",
    "key": "ac3fca3d-6c3f-416e-bb02-862d64d9fef1",
    "active": true,
    "displayOnNHCPortal": true
  },
  {
    "latitude": 9.9481,
    "longitude": 8.8924,
    "name": "Federal College of forestry Jos",
    "key": "e3ca85ad-711e-4c30-b715-179e2a6054ba",
    "active": true,
    "displayOnNHCPortal": true
  },
  {
    "latitude": 6.150351,
    "longitude": -75.36662,
    "name": "Universidad Católica de Oriente",
    "key": "7e8dae18-e60e-4edc-bdfe-eb6c07d92af5",
    "active": true,
    "displayOnNHCPortal": true
  },
  {
    "latitude": 8.71825,
    "longitude": 77.73883,
    "name": "St. Xavier's College",
    "key": "a0b76cf1-eb8f-4bc0-8865-433d29ec0c3b",
    "active": true,
    "displayOnNHCPortal": true
  },
  {
    "latitude": 42.089837,
    "longitude": -75.970223,
    "name": "Binghamton University",
    "key": "84ccdb1c-24a5-495e-a676-338bed1117d4",
    "active": true,
    "displayOnNHCPortal": true
  },
  {
    "latitude": 34.185645,
    "longitude": -118.884122,
    "name": "Santa Monica Mountains National Recreation Area (U.S. National Park Service)",
    "key": "b2f840c6-359f-4660-8442-4833fd35fc19",
    "active": true,
    "displayOnNHCPortal": true
  },
  {
    "latitude": 5.917934,
    "longitude": -0.133772,
    "name": "Centre for Plant Medicine Research",
    "key": "aed19e87-e463-463a-9991-bda78020655e",
    "active": true,
    "displayOnNHCPortal": true
  },
  {
    "latitude": 19.17793,
    "longitude": 74.10854,
    "name": "Hon. Balasaheb Jadhav college Ale",
    "key": "1953b276-3434-4fcb-9ccc-ca2cec6d7585",
    "active": true,
    "displayOnNHCPortal": true
  },
  {
    "latitude": 38.8985,
    "longitude": 40.48794,
    "name": "Bingöl University Herbarium",
    "key": "0c1bdfc9-1943-4125-bc82-041b11d4e5c6",
    "active": true,
    "displayOnNHCPortal": true
  },
  {
    "latitude": 38.462776,
    "longitude": 27.369749,
    "name": "OLIVE CULTIVATION RESEARCH INSTITUTE DIRECTORATE",
    "key": "b4b18a5a-91c4-4c8f-9292-61bc29fe7952",
    "active": true,
    "displayOnNHCPortal": true
  },
  {
    "latitude": 17.536041,
    "longitude": -99.495972,
    "name": "Universidad Autónoma de Guerrero",
    "key": "37441429-d0a9-4550-90e8-e25224d38df2",
    "active": true,
    "displayOnNHCPortal": true
  },
  {
    "latitude": 34.183798,
    "longitude": 72.038722,
    "name": "Women University Mardan",
    "key": "ec9b0793-f989-4ebd-b762-562fe858b713",
    "active": true,
    "displayOnNHCPortal": true
  },
  {
    "latitude": 56.6117,
    "longitude": 38.67467,
    "name": "NGO «St. Alexis Hermitage Orthodox Charity Monastery-Brotherhood»",
    "key": "28184ce5-1bfb-4017-b3d1-f8cbdb6255bd",
    "active": true,
    "displayOnNHCPortal": true
  },
  {
    "latitude": -34.97094,
    "longitude": 138.63741,
    "name": "Terrestrial Ecosystem Research Network (TERN)",
    "key": "74642b5e-0505-43e6-a894-df19793ac831",
    "active": true,
    "displayOnNHCPortal": true
  },
  {
    "latitude": -2.499722,
    "longitude": 28.84417,
    "name": "Université Officielle de Bukavu",
    "key": "45fe5ea2-bed6-45c9-928b-7a210e320b3e",
    "active": true,
    "displayOnNHCPortal": true
  },
  {
    "latitude": -13.145607,
    "longitude": -74.22134,
    "name": "Herbario San Cristóbal de Huamanga",
    "key": "ac0cb53e-bced-4a82-a06e-2db3a2d388e6",
    "active": true,
    "displayOnNHCPortal": true
  },
  {
    "latitude": 19.524274,
    "longitude": -96.922206,
    "name": "Centro de Investigaciones Tropicales, Universidad Veracruzana",
    "key": "70bb4395-f673-4baf-bb17-7496cded00f1",
    "active": true,
    "displayOnNHCPortal": true
  },
  {
    "latitude": 9.90987,
    "longitude": 78.10856,
    "name": "The Madura College (Autonomous), Madurai, Tamil Nadu, India.",
    "key": "1cb349fc-574c-47c7-8514-f17adbd67b0e",
    "active": true,
    "displayOnNHCPortal": true
  },
  {
    "latitude": 12.823149,
    "longitude": 123.842838,
    "name": "Sorsogon State University",
    "key": "b766b50e-f67e-415c-ba8e-d8c1ab1e2f2d",
    "active": true,
    "displayOnNHCPortal": true
  },
  {
    "latitude": 16.737634,
    "longitude": 78.145826,
    "name": "Telangana Botanical Garden, Dr. BRR Government Degree College, Jadcherla",
    "key": "82fdc257-6842-42af-b90e-84c1ea421823",
    "active": true,
    "displayOnNHCPortal": true
  },
  {
    "latitude": 31.888499,
    "longitude": -102.327458,
    "name": "University of Texas Permian Basin",
    "key": "0f2cc6e1-365f-4e65-bc30-abac3270e45f",
    "active": true,
    "displayOnNHCPortal": true
  },
  {
    "latitude": 52.393213,
    "longitude": 16.84155,
    "name": "Blazej Gierczyk Private Herbarium",
    "key": "b12b8ed0-53aa-4b68-9bae-df224e152da2",
    "active": true,
    "displayOnNHCPortal": true
  },
  {
    "latitude": -2.07266,
    "longitude": 106.07761,
    "name": "Universitas Bangka Belitung",
    "key": "bcdbadff-9c9e-43e3-9893-6f5b67d6bf5e",
    "active": true,
    "displayOnNHCPortal": true
  },
  {
    "latitude": -2.907193,
    "longitude": -41.754291,
    "name": "Universidade Federal do Delta do Parnaíba",
    "key": "224dd7ee-61cc-494b-a26b-da6613351a37",
    "active": true,
    "displayOnNHCPortal": true
  },
  {
    "latitude": 0.336528,
    "longitude": 32.566031,
    "name": "Department of Zoology, Entomology and Fisheries Sciences, Makerere University",
    "key": "547692ce-a6b3-4faf-8f96-96903f47f15d",
    "active": true,
    "displayOnNHCPortal": true
  },
  {
    "latitude": 53.3414,
    "longitude": -6.2411,
    "name": "Trinity College Dublin Geological Museum",
    "key": "37b11d00-509c-4638-b8d0-ea451f7a08da",
    "active": true,
    "displayOnNHCPortal": true
  },
  {
    "latitude": 0.193576,
    "longitude": 6.548338,
    "name": "Parque Natural Obô de São Tomé",
    "key": "eba23aeb-3d81-46a3-9c4e-eb4dfb767d25",
    "numberSpecimens": 70,
    "active": true,
    "displayOnNHCPortal": true
  },
  {
    "name": "University of Michigan Museum of Natural History",
    "key": "4375da5c-5a2c-425f-857a-5e9700af10fc",
    "active": true,
    "displayOnNHCPortal": true
  },
  {
    "name": "Universidad Simón Bolívar",
    "key": "fb537c13-ae56-4d74-9fdb-cd4233fae106",
    "active": true,
    "displayOnNHCPortal": true
  },
  {
    "latitude": 42.69,
    "longitude": 23.32,
    "name": "National Museum of Natural History at the Bulgarian Academy of Sciences",
    "key": "3e2c3303-f852-4ea4-9699-2134157bf6fc",
    "numberSpecimens": 15,
    "active": true,
    "displayOnNHCPortal": true
  },
  {
    "latitude": 45.93118,
    "longitude": 8.55304,
    "name": "Consiglio Nazionale delle Ricerche - Istituto di Ricerca sulle Acque - Verbania",
    "key": "9443e624-7071-4d54-b05d-a69c268bfe15",
    "active": true,
    "displayOnNHCPortal": true
  },
  {
    "name": "Station d'Ecologie de Lamto",
    "key": "a37b1769-dfa8-41c2-b417-bb2fc3aaa81a",
    "active": true,
    "displayOnNHCPortal": true
  },
  {
    "latitude": 12.207034,
    "longitude": 109.214951,
    "name": "Museum of Oceanography",
    "key": "543ce1ab-52c4-4610-a11e-42ef4f9e78bf",
    "active": true,
    "displayOnNHCPortal": true
  },
  {
    "latitude": 3.72201,
    "longitude": 101.52388,
    "name": "Universiti Pendidikan Sultan Idris",
    "key": "769e039d-fcd4-49cf-94fd-d12b3fa6cc95",
    "active": true,
    "displayOnNHCPortal": true
  },
  {
    "latitude": 19.4095,
    "longitude": -99.3158,
    "name": "Technological Institute of Higher Studies of Huixquilucan, National Technological of Mexico",
    "key": "1c6cc552-5068-4c1d-9c37-7539cf1701e3",
    "active": true,
    "displayOnNHCPortal": true
  },
  {
    "latitude": 33.48361,
    "longitude": 48.409,
    "name": "Lorestan University of Medical Sciences",
    "key": "45275a59-f734-4a19-afbf-9edac5af100b",
    "active": true,
    "displayOnNHCPortal": true
  },
  {
    "latitude": 16.737634,
    "longitude": 78.145826,
    "name": "Telangana Botanical Garden, Dr. BRR Government Degree College, Jadcherla",
    "key": "509e4fe2-ff3e-4242-a34c-c428aebd62f9",
    "active": true,
    "displayOnNHCPortal": true
  },
  {
    "latitude": 11.1667,
    "longitude": 7.63228,
    "name": "Ahmadu Bello University, Zaria",
    "key": "6bacc7ab-86fe-4ef3-94f8-3772d0dca10b",
    "active": true,
    "displayOnNHCPortal": true
  },
  {
    "latitude": 35.62293,
    "longitude": 117.678674,
    "name": "Maturango Museum of the Indian Wells Valley",
    "key": "f7791fc0-0d22-4f75-b30d-0180d5b10843",
    "active": true,
    "displayOnNHCPortal": true
  },
  {
    "latitude": 26.737778,
    "longitude": 94.15667,
    "name": "CSIR-North East Institute of Science and Technology, Jorhat - 785006, Assam",
    "key": "18f9c03c-eb28-42a9-945f-5d2bb029eb90",
    "active": true,
    "displayOnNHCPortal": true
  },
  {
    "latitude": 39.889556,
    "longitude": 32.741222,
    "name": "National Botanical Garden of Türkiye",
    "key": "66f3ec89-554b-4332-8684-f1d596759a47",
    "active": true,
    "displayOnNHCPortal": true
  },
  {
    "latitude": 43.199649,
    "longitude": 131.920501,
    "name": "A.V. Zhirmunsky National Scientific Center of Marine Biology Far Eastern Branch, Russian Academy of Sciences (NSCMB FEB RAS)",
    "key": "5838e55e-662d-452a-a9d3-4057be72b28e",
    "active": true,
    "displayOnNHCPortal": true
  },
  {
    "latitude": 50.3601,
    "longitude": 4.7447,
    "name": "Cornwall College",
    "key": "27f50e41-7349-47ce-96e4-e3ef06232f33",
    "active": true,
    "displayOnNHCPortal": true
  },
  {
    "latitude": 36.19208,
    "longitude": 5.36379,
    "name": "Laboratory of Natural Resource Valorisation, SNV Faculty, Setif 1 University, 19000 Setif, Algeria",
    "key": "8f1b938b-08a6-43f4-9976-da6f2f3240b7",
    "active": true,
    "displayOnNHCPortal": true
  },
  {
    "latitude": 16.500289,
    "longitude": 16.500289,
    "name": "Department of Collegiate Education Department of Botany Government First Grade College, Raibag",
    "key": "f5151fb9-1e47-4ec5-a0b0-8e82a717018f",
    "active": true,
    "displayOnNHCPortal": true
  },
  {
    "latitude": 12.2079,
    "longitude": 109.2145,
    "name": "Institute of Oceanography",
    "key": "c6dd4cb1-c7ad-493e-a2b1-6a173f053a80",
    "active": false,
    "displayOnNHCPortal": true
  },
  {
    "latitude": 41.564987,
    "longitude": -85.827004,
    "name": "Goshen College",
    "key": "d2b86bbc-feaa-444b-b2e4-743438df7817",
    "active": true,
    "displayOnNHCPortal": true
  },
  {
    "latitude": 53.86197,
    "longitude": 27.48492,
    "name": "Belarusian State Medical University",
    "key": "cddd1652-03bb-4cd1-8ccf-cf4389f368db",
    "active": true,
    "displayOnNHCPortal": true
  },
  {
    "latitude": 41.0676,
    "longitude": 14.331,
    "name": "University of Campania Luigi Vanvitelli",
    "key": "ae9eff89-57d6-4266-b597-013a2a9db7c7",
    "active": true,
    "displayOnNHCPortal": true
  },
  {
    "latitude": -36.828,
    "longitude": -73.037,
    "name": "Universidad de Concepción",
    "key": "447da39c-0781-44b2-b61f-241363a2b760",
    "active": true,
    "displayOnNHCPortal": true
  },
  {
    "latitude": 1.5025,
    "longitude": 75.661389,
    "name": "Universidad de la Amazonia",
    "key": "cf92b983-3c7b-4083-9c00-b2fbc354de7c",
    "active": true,
    "displayOnNHCPortal": true
  },
  {
    "latitude": -33.94594,
    "longitude": -60.566527,
    "name": "INTA EEA Pergamino",
    "key": "00a2fc15-84c4-4a7e-8d77-c9cbea5d8eb3",
    "active": true,
    "displayOnNHCPortal": true
  },
  {
    "latitude": 49.742916,
    "longitude": 13.596931,
    "name": "Západočeské muzeum v Plzni",
    "key": "0fb4d506-8bad-4b94-839c-23ba964a65b8",
    "active": true,
    "displayOnNHCPortal": true
  },
  {
    "latitude": 48.915149,
    "longitude": 24.70094,
    "name": "Pre-Carpathian National University called after Vasyl’ Stefanyk",
    "key": "91b92ca1-6722-413e-9106-5d53f2c091fd",
    "active": true,
    "displayOnNHCPortal": true
  },
  {
    "latitude": 32.528541,
    "longitude": -93.496212,
    "name": "Kelley Botanical Library",
    "key": "0ce1d79c-ae67-4b3f-88ea-f03d770c760b",
    "active": true,
    "displayOnNHCPortal": true
  },
  {
    "latitude": 36.103485,
    "longitude": -79.50139,
    "name": "Elon University",
    "key": "2e75ce33-de0d-495c-8ab0-556223a78e26",
    "active": true,
    "displayOnNHCPortal": true
  },
  {
    "latitude": 37.42078,
    "longitude": 112.57649,
    "name": "Shanxi Agricultural University",
    "key": "4bb0c640-bd63-49de-8547-0a153f8ea7b1",
    "active": true,
    "displayOnNHCPortal": true
  },
  {
    "latitude": 21.42816,
    "longitude": -104.892112,
    "name": "Universidad Autónoma de Nayarit",
    "key": "a7d857e5-12b9-4ee9-a481-73a4c5f21c9a",
    "active": true,
    "displayOnNHCPortal": true
  },
  {
    "latitude": 44.843163,
    "longitude": 7.636611,
    "name": "Istituto Salesiano (Scuola Agraria Salesiana)",
    "key": "9c670003-3474-4bde-9a2c-6079808eba3d",
    "active": true,
    "displayOnNHCPortal": true
  },
  {
    "latitude": 8.94808,
    "longitude": 125.54206,
    "name": "Father Saturnino Urios University-Biodiversity Informatics and Research Center (FSUU-BIRC)",
    "key": "da4bad98-f46a-4ec2-8b9d-e6e8d7ac786f",
    "active": true,
    "displayOnNHCPortal": true
  },
  {
    "latitude": 14.60982,
    "longitude": 120.98958,
    "name": "University of Santo Tomas - Zooplankton Ecology, Systematics, and Limnology Laboratory",
    "key": "007324a5-6d2f-475b-a93e-e7d6ca774fb8",
    "numberSpecimens": 2000,
    "active": true,
    "displayOnNHCPortal": true
  },
  {
    "name": "USDA Agricultural Research Service (ARS)",
    "key": "e1666b1f-f017-4a8f-8d98-a675360bed6e",
    "active": true,
    "displayOnNHCPortal": true
  },
  {
    "name": "USDA Animal and Plant Health Inspection Service (APHIS)",
    "key": "60e918e7-a353-42e6-b995-da33e94238e0",
    "numberSpecimens": 0,
    "active": true,
    "displayOnNHCPortal": true
  },
  {
    "name": "USDA Natural Resources Conservation Service (NRCS)",
    "key": "8da0e86c-211b-491e-b825-742a33dc0a20",
    "active": true,
    "displayOnNHCPortal": true
  },
  {
    "latitude": 39.255005,
    "longitude": -114.872365,
    "name": "USDA Forest Service (FS)",
    "key": "2954a9da-39f4-44de-b8c1-cfb1e176a81e",
    "active": true,
    "displayOnNHCPortal": true
  },
  {
    "latitude": 29.295262,
    "longitude": 47.944875,
    "name": "Public Authority of Agriculture Affairs and Fish Resources",
    "key": "4f16cf1d-6e81-44fd-9524-1c30eead3303",
    "active": true,
    "displayOnNHCPortal": true
  },
  {
    "latitude": 35.38501,
    "longitude": 136.95747,
    "name": "Center for the Evolutionary Origins of Human Behavior, Kyoto University",
    "key": "fed1db25-03ef-497f-b587-deeab6e99826",
    "numberSpecimens": 16000,
    "active": true,
    "displayOnNHCPortal": true
  },
  {
    "latitude": -1.6564,
    "longitude": -78.6786,
    "name": "Museo de Entomología de la Escuela Superior Politécnica del Chimborazo",
    "key": "5c5e506d-5eb3-41b0-b452-2bfd77b477f4",
    "active": true,
    "displayOnNHCPortal": true
  },
  {
    "latitude": 49.263215,
    "longitude": -123.250895,
    "name": "Beaty Biodiversity Museum",
    "key": "c7d5c4da-9590-49c2-b87c-f0e7932611a6",
    "numberSpecimens": 3000000,
    "active": true,
    "displayOnNHCPortal": true
  },
  {
    "latitude": -0.201605,
    "longitude": 78.504135,
    "name": "Museo Universitario de la Biodiversidad",
    "key": "1b198da4-73cd-4854-accc-022718551159",
    "active": true,
    "displayOnNHCPortal": true
  },
  {
    "latitude": -18.932577,
    "longitude": 47.525986,
    "name": "Madagascar Biodiversity Center",
    "key": "84580217-f488-496f-b161-2328d3593449",
    "numberSpecimens": 13000,
    "active": true,
    "displayOnNHCPortal": true
  },
  {
    "latitude": -0.184972,
    "longitude": -78.486827,
    "name": "Fundación Herpetológica Gustavo Orcés",
    "key": "686cfc30-47bd-494e-81d4-2991384f363b",
    "numberSpecimens": 11000,
    "active": true,
    "displayOnNHCPortal": true
  },
  {
    "latitude": 39.710247,
    "longitude": -86.13511,
    "name": "University of Indianapolis",
    "key": "eb6bbc59-775a-4859-9545-b680927b985f",
    "numberSpecimens": 10000,
    "active": true,
    "displayOnNHCPortal": true
  },
  {
    "latitude": 34.925711,
    "longitude": -82.435474,
    "name": "Furman University",
    "key": "ad4e6e4b-62c1-46f0-a765-c0e4782d2e36",
    "active": true,
    "displayOnNHCPortal": true
  },
  {
    "latitude": 10.641301,
    "longitude": 122.228913,
    "name": "University of the Philippines Visayas Musuem of Natural Sciences",
    "key": "83814b51-a827-4e9f-8eee-f16a8e4d13a1",
    "active": true,
    "displayOnNHCPortal": true
  },
  {
    "latitude": 10.865021,
    "longitude": 106.796846,
    "name": "Institute of Tropical Biology",
    "key": "801cc29b-677e-41fc-ae40-040b80dd632c",
    "active": true,
    "displayOnNHCPortal": true
  },
  {
    "name": "CasaLuker S.A.",
    "key": "d8953730-0dcb-448a-9adf-668112b3d42a",
    "active": true,
    "displayOnNHCPortal": true
  },
  {
    "latitude": 50.81696,
    "longitude": 15.77678,
    "name": "Kostrzyca Forest Gene Bank",
    "key": "bbe7998d-7bf4-4b86-8eb7-bed6bcd02de3",
    "active": true,
    "displayOnNHCPortal": true
  },
  {
    "latitude": -2.147494,
    "longitude": -79.964612,
    "name": "Escuela Superior Politécnica del Litoral",
    "key": "e047165e-fcf6-48a4-943d-13ea6f8231c2",
    "active": true,
    "displayOnNHCPortal": true
  },
  {
    "latitude": 0.35814,
    "longitude": -78.113804,
    "name": "Museo de Historia Natural de la Universidad Técnica del Norte",
    "key": "67dd5c74-a62c-49b9-bb5e-5cd5b0ef67e5",
    "numberSpecimens": 20000,
    "active": true,
    "displayOnNHCPortal": true
  },
  {
    "latitude": -0.179134,
    "longitude": -78.488959,
    "name": "Instituto Tecnológico Superior Sudamericano",
    "key": "533fe09e-15f4-4f5d-b772-39c8bf5d34dd",
    "active": true,
    "displayOnNHCPortal": true
  },
  {
    "latitude": 19.450773,
    "longitude": -70.745147,
    "name": "University ISA",
    "key": "b4cf893d-7c04-4682-87dc-cf84eada0e0d",
    "active": true,
    "displayOnNHCPortal": true
  },
  {
    "latitude": 38.900997,
    "longitude": -106.967162,
    "name": "Crested Butte Botanic Gardens",
    "key": "5d53217d-cfbb-4f2c-b50b-65ee49a11d3c",
    "active": true,
    "displayOnNHCPortal": true
  },
  {
    "latitude": 10.340165,
    "longitude": 76.214616,
    "name": "St. Joseph's College (Autonomous), Irinjalakuda",
    "key": "158c8696-98e7-4c39-9e83-764b9782cccf",
    "active": true,
    "displayOnNHCPortal": true
  },
  {
    "latitude": 26.105563,
    "longitude": 119.232125,
    "name": "Fujian Agriculture and Forestry University",
    "key": "3c9bd5e2-8769-4d76-8d25-128c02237d07",
    "active": true,
    "displayOnNHCPortal": true
  },
  {
    "latitude": 9.499074,
    "longitude": 76.329087,
    "name": "St. Joseph's College for Women, Alappuzha, Kerala, India.",
    "key": "250c2b18-a9b3-4b7e-a464-9ec530d96ff7",
    "active": true,
    "displayOnNHCPortal": true
  },
  {
    "latitude": 47.59261,
    "longitude": 19.36185,
    "name": "Hungarian University of Agriculture and Life Sciences",
    "key": "dc61be8a-ae00-40da-93b2-2e536937527b",
    "active": true,
    "displayOnNHCPortal": true
  },
  {
    "latitude": 36.29852,
    "longitude": 57.680615,
    "name": "Hakim Sabzevari University",
    "key": "40cf2989-1309-4d13-be27-351637a03e9f",
    "active": true,
    "displayOnNHCPortal": true
  },
  {
    "latitude": -32.062182,
    "longitude": -60.643911,
    "name": "National Council for Scientific and Technical Research (CONICET)",
    "key": "9bcac4eb-a3d8-4bd5-bdf7-a43232db3918",
    "active": true,
    "displayOnNHCPortal": true
  },
  {
    "latitude": 8.156683,
    "longitude": 125.124107,
    "name": "Bukidnon State University",
    "key": "a648632d-3372-4f4a-b7c9-8c7cb950c9c8",
    "active": true,
    "displayOnNHCPortal": true
  },
  {
    "latitude": 39.1181,
    "longitude": -108.5317,
    "name": "Bureau of Land Management, Grand Junction Field Office",
    "key": "53ccbb9e-cfef-41c2-9a44-7bcbfb00ed27",
    "active": true,
    "displayOnNHCPortal": true
  },
  {
    "latitude": 31.043973,
    "longitude": 31.357855,
    "name": "Faculty of Pharmacy, mansoura University, Egypt",
    "key": "ebce7745-36f9-4e88-9e5d-a7a7dc41d825",
    "active": true,
    "displayOnNHCPortal": true
  },
  {
    "latitude": -21.244732,
    "longitude": -48.298945,
    "name": "Herbarium JABOTI",
    "key": "1e48bf3a-f3b6-44ce-9b59-585dd879a5df",
    "active": true,
    "displayOnNHCPortal": true
  },
  {
    "latitude": 37.400696,
    "longitude": -121.847009,
    "name": "UC Berkeley, Blue Oak Ranch Reserve",
    "key": "a6c5490e-5ff7-49ef-894c-429dabcb4131",
    "active": true,
    "displayOnNHCPortal": true
  },
  {
    "latitude": 34.137,
    "longitude": 71.742783,
    "name": "Bacha Khan University Charsadda",
    "key": "7fd554e6-4f14-4d59-b4ea-faa50339e2a6",
    "active": true,
    "displayOnNHCPortal": true
  },
  {
    "latitude": -31.4185,
    "longitude": -64.1879,
    "name": "Herbario LUTI",
    "key": "21a2cc87-3292-4e27-aabe-4c09f3ac857c",
    "active": true,
    "displayOnNHCPortal": true
  },
  {
    "latitude": 33.51836,
    "longitude": 73.9022,
    "name": "University of Kotli, Azad Jammu and Kashmir",
    "key": "e99577c0-1ed2-4272-8ad8-bb88db430c74",
    "active": true,
    "displayOnNHCPortal": true
  },
  {
    "latitude": 53.214,
    "longitude": 6.549,
    "name": "Verboom Private Herbarium",
    "key": "c940cbbb-0e0f-4d77-b18f-f58c8a776a12",
    "active": true,
    "displayOnNHCPortal": true
  },
  {
    "latitude": 28.76332,
    "longitude": 115.83257,
    "name": "Jiangxi Agricultural University",
    "key": "fa34922f-23d5-4ad3-b3ad-87e26733b6ce",
    "active": true,
    "displayOnNHCPortal": true
  },
  {
    "latitude": 31.4537,
    "longitude": 74.2989,
    "name": "University of Education Lahore, Pakistan",
    "key": "f682184e-0578-4e7e-b928-e5a5147b3163",
    "active": true,
    "displayOnNHCPortal": true
  },
  {
    "latitude": 1.68428,
    "longitude": -50.46921,
    "name": "Universidade Federal do Pará",
    "key": "19b8cb4a-6d0b-4997-b4f4-32882653365d",
    "active": true,
    "displayOnNHCPortal": true
  },
  {
    "latitude": 26.06959,
    "longitude": -98.313176,
    "name": "Instituto Politécnico Nacional",
    "key": "33f5c315-d423-4333-9651-09967b6ae4e6",
    "active": true,
    "displayOnNHCPortal": true
  },
  {
    "latitude": 37.58808,
    "longitude": 36.81592,
    "name": "Kahramanmaraş Sütçü İmam University, Faculty of Forestry",
    "key": "ca98a231-8314-4f23-9b43-98fc0933fb1b",
    "active": true,
    "displayOnNHCPortal": true
  },
  {
    "latitude": 38.905384,
    "longitude": -77.12852,
    "name": "Marymount University",
    "key": "76707a3e-4bbd-4034-8867-780c90c6ac68",
    "active": true,
    "displayOnNHCPortal": true
  },
  {
    "latitude": 13.688454,
    "longitude": 100.658989,
    "name": "SuanLuang Rama IX Royal Botanic Garden",
    "key": "4e81ff61-cbe7-43c3-96a1-0082d97746cf",
    "active": true,
    "displayOnNHCPortal": true
  },
  {
    "latitude": 36.469008,
    "longitude": 127.14001,
    "name": "Gyeryonsan Natural History Museum",
    "key": "9389bf5c-7e49-45f1-a748-92d502cff684",
    "active": true,
    "displayOnNHCPortal": true
  },
  {
    "latitude": 14.4904,
    "longitude": 121.050695,
    "name": "Industrial Technology Development Institute, Department of Science and Technology",
    "key": "193e711e-a613-4bc5-860e-82098e9908fc",
    "active": true,
    "displayOnNHCPortal": true
  },
  {
    "latitude": 53.521331,
    "longitude": -113.521331,
    "name": "University of Alberta Museums",
    "key": "8609440a-a2ea-4e76-a90b-034f607c48e1",
    "active": true,
    "displayOnNHCPortal": true
  },
  {
    "latitude": 3.12096,
    "longitude": 101.65385,
    "name": "Tropical Infectious Diseases Research and Education Centre (TIDREC), Universiti Malaya",
    "key": "a68a2ac7-a281-4960-b897-4862c59f265c",
    "active": true,
    "displayOnNHCPortal": true
  },
  {
    "latitude": 50.979194,
    "longitude": 3.775306,
    "name": "Research Institute for Agriculture, Fisheries and Food (ILVO)",
    "key": "e880ae43-3828-4bde-aef2-0448a04fe096",
    "numberSpecimens": 550000,
    "active": true,
    "displayOnNHCPortal": true
  },
  {
    "latitude": 51.608565,
    "longitude": -3.980444,
    "name": "Swansea University Zoology Museum",
    "key": "a5276a79-b4f5-4660-b97c-7e0266f1bed1",
    "active": true,
    "displayOnNHCPortal": true
  },
  {
    "latitude": 25.030115,
    "longitude": 121.508652,
    "name": "Taiwan Forestry Research Institute",
    "key": "6da4f792-c817-4953-9800-3ea876fa728f",
    "active": true,
    "displayOnNHCPortal": true
  },
  {
    "latitude": -0.196391,
    "longitude": -78.435353,
    "name": "Museo de Zoología, Universidad San Francisco de Quito",
    "key": "79985d89-7b6c-4c95-bcfe-fb38fcfba063",
    "active": true,
    "displayOnNHCPortal": true
  },
  {
    "latitude": -7.76334,
    "longitude": 110.37995,
    "name": "Center for Food And Nutrition Studies, Universitas Gadjah Mada",
    "key": "86875e28-19fe-49ab-82f3-101e63eebc0e",
    "active": true,
    "displayOnNHCPortal": true
  },
  {
    "latitude": 53.406158,
    "longitude": -2.966418,
    "name": "Victoria Gallery and Museum",
    "key": "3913b025-06db-494e-aa81-6f2f35098c40",
    "numberSpecimens": 26400,
    "active": true,
    "displayOnNHCPortal": true
  },
  {
    "latitude": 52.621919,
    "longitude": -1.12381,
    "name": "University of Leicester",
    "key": "af8f20da-14c5-42c1-80b7-c0060dbd435c",
    "numberSpecimens": 396100,
    "active": true,
    "displayOnNHCPortal": true
  },
  {
    "latitude": 51.456497,
    "longitude": -2.604423,
    "name": "University of Bristol",
    "key": "a4b065bc-19c2-445a-8cff-f99066e6c930",
    "numberSpecimens": 139400,
    "active": true,
    "displayOnNHCPortal": true
  },
  {
    "latitude": 56.221887,
    "longitude": -2.696399,
    "name": "The Scottish Fisheries Museum",
    "key": "131a50c9-0371-4a0e-a9bc-7ce47e8da386",
    "numberSpecimens": 150,
    "active": true,
    "displayOnNHCPortal": true
  },
  {
    "latitude": 51.366745,
    "longitude": 1.316269,
    "name": "The Powell-Cotton Museum, Quex House and Gardens",
    "key": "661b16d8-ff6f-4f6d-95d4-5faa6ff65da3",
    "numberSpecimens": 22800,
    "active": true,
    "displayOnNHCPortal": true
  },
  {
    "latitude": 50.712557,
    "longitude": -1.988844,
    "name": "Poole Museum",
    "key": "a27138c0-a05b-44ed-bdb5-d57d4c135eb5",
    "numberSpecimens": 7300,
    "active": true,
    "displayOnNHCPortal": true
  },
  {
    "latitude": 51.6894,
    "longitude": -4.160047,
    "name": "Parc Howard Museum",
    "key": "f06af7fe-6e3f-4ef1-8b24-1bfde80f79bf",
    "numberSpecimens": 8,
    "active": true,
    "displayOnNHCPortal": true
  },
  {
    "latitude": 50.725039,
    "longitude": -2.932639,
    "name": "Lyme Regis Museum",
    "key": "db1cc0af-1490-4272-967b-ddd72bb219e2",
    "numberSpecimens": 1500,
    "active": true,
    "displayOnNHCPortal": true
  },
  {
    "latitude": 53.761416,
    "longitude": -2.687802,
    "name": "Lancashire County Museums Service",
    "key": "3a203761-09c9-4edb-a3e5-b89d43a59022",
    "numberSpecimens": 92700,
    "active": true,
    "displayOnNHCPortal": true
  },
  {
    "latitude": 50.78884,
    "longitude": -1.032265,
    "name": "Historic England",
    "key": "705bdbcf-2f4c-47ca-983d-e7c704e16523",
    "numberSpecimens": 18300,
    "active": true,
    "displayOnNHCPortal": true
  },
  {
    "latitude": 50.85758,
    "longitude": 0.568568,
    "name": "Hastings Museum and Art Gallery",
    "key": "76f330fc-6579-45d7-a21c-92603878a8bd",
    "numberSpecimens": 15100,
    "active": true,
    "displayOnNHCPortal": true
  },
  {
    "latitude": 51.919481,
    "longitude": 0.924625,
    "name": "Colchester Museums",
    "key": "ecd5f798-3668-4d1f-bf9e-d1dfc19bc40f",
    "numberSpecimens": 59000,
    "active": true,
    "displayOnNHCPortal": true
  },
  {
    "latitude": 51.865549,
    "longitude": -4.266887,
    "name": "Carmarthenshire Museum",
    "key": "26da6a5b-68ee-4200-9ee7-09a16b2ff0e9",
    "numberSpecimens": 2300,
    "active": true,
    "displayOnNHCPortal": true
  },
  {
    "latitude": 53.256926,
    "longitude": -1.912736,
    "name": "Buxton Museum and Art Gallery",
    "key": "28fa0763-cdf6-4455-8ed0-80fd8a425ca9",
    "numberSpecimens": 5600,
    "active": true,
    "displayOnNHCPortal": true
  },
  {
    "latitude": 46.87474,
    "longitude": 8.65054,
    "name": "Naturkundliche Sammlung Uri",
    "key": "2c521b92-4c8d-4fe6-990c-50d426708847",
    "active": true,
    "displayOnNHCPortal": true
  },
  {
    "latitude": 0.34719,
    "longitude": -78.10718,
    "name": "Pontificia Universidad Católica del Ecuador Sede Ibarra",
    "key": "79cce11a-be46-4788-b93f-20c2a3b66115",
    "numberSpecimens": 5300,
    "active": true,
    "displayOnNHCPortal": true
  },
  {
    "latitude": 36.4979,
    "longitude": 127.28553,
    "name": "Sejong National Arboretum",
    "key": "17e8751d-b0c9-4e06-b3ca-9800f898951d",
    "active": true,
    "displayOnNHCPortal": true
  },
  {
    "latitude": -78.934572,
    "longitude": 39.650015,
    "name": "Frostburg State University",
    "key": "e32edff9-164d-4fb7-babe-d3df12da6a47",
    "active": true,
    "displayOnNHCPortal": true
  },
  {
    "latitude": 24.435,
    "longitude": 118.092,
    "name": "Third Institute of Oceanography, Ministry of Natural Resources, China",
    "key": "3088690f-e4f5-4d2f-9348-e4b9a03b9eb4",
    "active": true,
    "displayOnNHCPortal": true
  },
  {
    "latitude": 22.726399,
    "longitude": 88.380715,
    "name": "RAMAKRISHNA MISSION VIVEKANANDA CENTENARY COLLEGE",
    "key": "f9deca23-2720-4116-aa63-5a2cceaed434",
    "active": true,
    "displayOnNHCPortal": true
  },
  {
    "latitude": 32.658916,
    "longitude": -16.923978,
    "name": "Universidade da Madeira/University of Madeira",
    "key": "d3d7ae85-3378-42e6-a310-920285d6fc9c",
    "active": true,
    "displayOnNHCPortal": true
  },
  {
    "latitude": -34.641799,
    "longitude": -68.373572,
    "name": "History Natural Museum of San Rafael",
    "key": "00a5eaee-acc1-4a8d-bf34-11218807209d",
    "active": true,
    "displayOnNHCPortal": true
  },
  {
    "latitude": 19.429254,
    "longitude": -155.256996,
    "name": "Hawaiʻi Volcanoes National Park",
    "key": "d3402fbc-187a-4af4-a507-d61d5362e276",
    "active": true,
    "displayOnNHCPortal": true
  },
  {
    "latitude": 52.7366,
    "longitude": 23.592,
    "name": "Białystok University of Technology",
    "key": "0ab7fab1-1795-4383-9a28-3d53649774d6",
    "active": true,
    "displayOnNHCPortal": true
  },
  {
    "latitude": 39.80385,
    "longitude": 39.37868,
    "name": "Erzincan Binali Yildirim University (Erzincan Binali Yıldırım Üniversitesi)",
    "key": "b2ee2deb-74f8-4b4c-a118-5736b72e0227",
    "active": true,
    "displayOnNHCPortal": true
  },
  {
    "latitude": 25.467,
    "longitude": 81.8594,
    "name": "University of Allahabad",
    "key": "82e0c6f0-9a27-46b3-b536-cc3e3d24e9e7",
    "active": true,
    "displayOnNHCPortal": true
  },
  {
    "latitude": 35.06126,
    "longitude": 35.35522,
    "name": "ÇUKUROVA UNIVERSITY, SCIENCE AND LETTER FACULTY",
    "key": "f63db6f2-332f-4d7c-aae5-48cd50779731",
    "active": true,
    "displayOnNHCPortal": true
  },
  {
    "latitude": 32.71928,
    "longitude": 51.53197,
    "name": "Herbarium of Department of Natural Resources I Isfahan University of Technology",
    "key": "4c9e3c7f-48ce-4b4e-aa53-631dfce208e9",
    "active": true,
    "displayOnNHCPortal": true
  },
  {
    "latitude": 4.641338,
    "longitude": -74.08142,
    "name": "Universidad Nacional de Colombia",
    "key": "b707fe35-e3d4-4388-a059-37521bd804be",
    "active": true,
    "displayOnNHCPortal": true
  },
  {
    "latitude": 31.03,
    "longitude": -93.21,
    "name": "Fort Polk Joint Readiness Training Center",
    "key": "72dd2b95-ebfa-46b8-957f-0e11f059d986",
    "active": true,
    "displayOnNHCPortal": true
  },
  {
    "latitude": 37.362425,
    "longitude": -118.411195,
    "name": "Bureau of Land Management",
    "key": "31989b04-8808-43ec-b800-f75e4441f35a",
    "active": false,
    "displayOnNHCPortal": true
  },
  {
    "latitude": 30.8038,
    "longitude": -92.28775,
    "name": "Louisiana State Arboretum",
    "key": "a5f3986a-a3d5-48eb-9483-23f545579d56",
    "active": true,
    "displayOnNHCPortal": true
  },
  {
    "latitude": 42.372979,
    "longitude": 14.165748,
    "name": "Flora d’Abruzzo",
    "key": "853b84fe-6d19-49a0-9f25-d038b63e4add",
    "active": true,
    "displayOnNHCPortal": true
  },
  {
    "latitude": 37.03533,
    "longitude": 37.31348,
    "name": "Gaziantep University",
    "key": "72bdaf01-6aca-46a7-ae69-54ced531ce76",
    "active": true,
    "displayOnNHCPortal": true
  },
  {
    "latitude": 41.130314,
    "longitude": -73.808096,
    "name": "Pace University",
    "key": "709a6cc3-911a-4b63-b444-81fe52aee418",
    "active": true,
    "displayOnNHCPortal": true
  },
  {
    "latitude": 60.003013,
    "longitude": -111.896733,
    "name": "Aurora College",
    "key": "d58f2453-75f9-48f9-bdf9-9a94b9e27360",
    "active": true,
    "displayOnNHCPortal": true
  },
  {
    "latitude": -5.833036,
    "longitude": -46.168622,
    "name": "Universidade Federal do Maranhão",
    "key": "17a0ba40-487d-445a-bda8-b7466f95cbb0",
    "active": true,
    "displayOnNHCPortal": true
  },
  {
    "latitude": 43.77737,
    "longitude": 11.26339,
    "name": "Fondazione Scienza e Tecnica",
    "key": "c2c3b897-e1d5-491a-92c3-9ccac86468a0",
    "active": true,
    "displayOnNHCPortal": true
  },
  {
    "latitude": 39.651295,
    "longitude": -78.931512,
    "name": "Frostburg State University",
    "key": "51f95b80-a9ac-427a-8fb5-bed9979756a5",
    "active": true,
    "displayOnNHCPortal": true
  },
  {
    "latitude": 34.1863,
    "longitude": 101.727625,
    "name": "Wayland Baptist University",
    "key": "e92d0463-4df1-4e9e-a7e2-d9ee6b807be2",
    "active": true,
    "displayOnNHCPortal": true
  },
  {
    "latitude": 37.105045,
    "longitude": -113.564835,
    "name": "Dixie State University",
    "key": "7f20a69c-ff3d-4f92-9404-11a919c9e091",
    "active": true,
    "displayOnNHCPortal": true
  },
  {
    "latitude": 36.8928,
    "longitude": 30.64509,
    "name": "Akdeniz University, Herbarium of the Education Faculty",
    "key": "1f6037ea-a8aa-43b1-a16b-6e5c1da8f079",
    "active": true,
    "displayOnNHCPortal": true
  },
  {
    "latitude": 51.345,
    "longitude": 12.370812,
    "name": "Naturkundemuseum Leipzig",
    "key": "2b212b5a-1131-4d36-85a2-05ed5e35d287",
    "active": true,
    "displayOnNHCPortal": true
  },
  {
    "latitude": 27.628376,
    "longitude": 95.529225,
    "name": "The Orchid Society of Eastern Himalaya",
    "key": "64483f13-cdda-4601-8e6f-ad387fd4fd44",
    "active": true,
    "displayOnNHCPortal": true
  },
  {
    "latitude": 49.281652,
    "longitude": 38.904577,
    "name": "Luhansk Taras Shevchenko National University",
    "key": "85445abf-8af8-496b-8ab3-11dd7b44b419",
    "active": true,
    "displayOnNHCPortal": true
  },
  {
    "latitude": 45.62625,
    "longitude": 7.98168,
    "name": "WWF Oasi Aree Protette Piemontesi - Giardino Botanico di Oropa",
    "key": "87d3ccca-d656-48d7-9baa-efa092854a3f",
    "active": true,
    "displayOnNHCPortal": true
  },
  {
    "latitude": 39.099,
    "longitude": -84.527,
    "name": "Cincinnati Museum Center (Cincinnati Museum of Natural History)",
    "key": "599d0c5b-f1ec-4545-8cc3-ab44e52ec925",
    "active": true,
    "displayOnNHCPortal": true
  },
  {
    "latitude": -6.368836,
    "longitude": 106.825914,
    "name": "Ruang Koleksi Biota Universitas Indonesia (Biota Collection Room)",
    "key": "44c5f429-427c-4073-9b4d-d55e6fe2131e",
    "active": true,
    "displayOnNHCPortal": true
  },
  {
    "latitude": 51.659176,
    "longitude": 0.2876,
    "name": "Epping Forest Conservation Centre",
    "key": "756d173c-dd2a-4b1b-a0fc-b54bb53b23c5",
    "active": false,
    "displayOnNHCPortal": true
  },
  {
    "latitude": 17.390481,
    "longitude": 78.181068,
    "name": "Pragati Green Meadows",
    "key": "56366b8b-6ba1-4ad6-aa37-c3542526df5a",
    "active": false,
    "displayOnNHCPortal": true
  },
  {
    "latitude": 21.05125,
    "longitude": 75.051731,
    "name": "Pratap College, Amalner (Autonomous).",
    "key": "a26ebce9-1438-4386-b3fc-c80c7e7f3563",
    "active": true,
    "displayOnNHCPortal": true
  },
  {
    "latitude": 33.40107,
    "longitude": -111.949944,
    "name": "Arizona State University",
    "key": "09f0609f-67b7-48ad-a2c0-f30e9cb23940",
    "active": true,
    "displayOnNHCPortal": true
  },
  {
    "latitude": 43.718323,
    "longitude": 4.096887,
    "name": "Société botanique d'Occitanie",
    "key": "806c85ef-47ec-4733-9157-e132b26e7465",
    "active": true,
    "displayOnNHCPortal": true
  },
  {
    "latitude": 42.984722,
    "longitude": -71.506111,
    "name": "Saint Anselm College",
    "key": "0a7d3acd-4d8b-4f44-b497-eb8e36262bae",
    "active": true,
    "displayOnNHCPortal": true
  },
  {
    "latitude": 28.23966,
    "longitude": 83.99053,
    "name": "Annapurna Natural History Museum",
    "key": "a8df8efa-30be-413d-b6a5-5713396b8409",
    "active": true,
    "displayOnNHCPortal": true
  },
  {
    "latitude": 28.190065,
    "longitude": 83.98286,
    "name": "International Mountain Museum",
    "key": "63f54d10-9c83-4dc6-8dd3-bc837bb7e0dd",
    "active": true,
    "displayOnNHCPortal": true
  },
  {
    "latitude": 40.441042,
    "longitude": -3.687216,
    "name": "Agencia Estatal Consejo Superior de Investigaciones (CSIC)",
    "key": "5638039e-68bc-4416-a998-1fc27caf3ab4",
    "active": true,
    "displayOnNHCPortal": true
  },
  {
    "name": "Australian Antarctic Division",
    "key": "250cd7f6-d3cd-47b1-8e2f-a4bbdcebe9a8",
    "active": true,
    "displayOnNHCPortal": true
  },
  {
    "latitude": -6.813502,
    "longitude": 39.29406,
    "name": "National Museum of Tanzania",
    "key": "74010726-f392-43b8-a6ae-140d146f84f3",
    "active": true,
    "displayOnNHCPortal": true
  },
  {
    "latitude": 49.484517,
    "longitude": -117.285969,
    "name": "Kootenay Native Plant Society",
    "key": "baf0e363-6e07-46d1-b04c-dccb3008d1b0",
    "active": true,
    "displayOnNHCPortal": true
  },
  {
    "latitude": -4.03544,
    "longitude": -79.20363,
    "name": "Museo de Zoología LOUNAZ de la Universidad Nacional de Loja",
    "key": "46da2941-bacb-4a64-8f8b-546b50a19a62",
    "active": true,
    "displayOnNHCPortal": true
  },
  {
    "name": "Instituto de Recursos Naturales y Agrobiología de Salamanca (CSIC)",
    "key": "aaabba1a-b280-4ef7-99fd-efb641cff0c2",
    "active": true,
    "displayOnNHCPortal": true
  },
  {
    "latitude": 0.043945,
    "longitude": -0.063171,
    "name": "Instituto Geológico y Minero de España. Museo Geominero (CSIC)",
    "key": "10a3d77f-83e1-4458-824e-03fb5e2e8e14",
    "active": true,
    "displayOnNHCPortal": true
  },
  {
    "name": "Instituto de Historia (CSIC)",
    "key": "dcddcf77-39f2-400a-9a2e-95800f87d4d4",
    "active": true,
    "displayOnNHCPortal": true
  },
  {
    "name": "Misión Biológica de Galicia (CSIC)",
    "key": "6878c8ff-8e11-4615-950a-b0d5a3329d3e",
    "active": true,
    "displayOnNHCPortal": true
  },
  {
    "name": "Instituto Español de Oceanografía. Centro Oceanográfico de Vigo (CSIC)",
    "key": "acdef0f8-0cf6-4aec-a988-1bf878acb2bf",
    "active": true,
    "displayOnNHCPortal": true
  },
  {
    "name": "Instituto Español de Oceanografía. Centro Oceanográfico de Baleares (CSIC)",
    "key": "37fe375f-ec02-4a7c-a7aa-00fcbb498113",
    "active": true,
    "displayOnNHCPortal": true
  },
  {
    "latitude": -16.320851,
    "longitude": 28.47941,
    "name": "Instituto de Productos Naturales y Agrobiología (CSIC)",
    "key": "75059cee-1938-4010-9c6e-c8d97a2f36af",
    "active": true,
    "displayOnNHCPortal": true
  },
  {
    "name": "Instituto de Ciencias Marinas de Andalucía (CSIC)",
    "key": "4c5cf761-ffbe-4e3b-8db1-4f99d32f9b37",
    "active": true,
    "displayOnNHCPortal": true
  },
  {
    "latitude": 40.478725,
    "longitude": -3.383916,
    "name": "INIA. Centro Nacional de Recursos Fitogenéticos (CSIC)",
    "key": "e7fbfa7b-ae8f-480c-8864-6fd2b34e6936",
    "active": true,
    "displayOnNHCPortal": true
  },
  {
    "name": "Estación Experimental de Aula Dei (CSIC)",
    "key": "416d58d7-abe7-43f5-a65d-70ca7ae95c71",
    "active": true,
    "displayOnNHCPortal": true
  },
  {
    "name": "Instituto Español de Oceanografía. Centro Oceanográfico de Málaga (CSIC)",
    "key": "2065da87-cf92-4fcf-8408-fc6faeb85dd5",
    "active": true,
    "displayOnNHCPortal": true
  },
  {
    "name": "Instituto Español de Oceanografía. Centro Oceanográfico de Gijón (CSIC)",
    "key": "e59d9116-4b25-45c8-8c04-9c8125c337a4",
    "active": true,
    "displayOnNHCPortal": true
  },
  {
    "latitude": 28.49894,
    "longitude": -16.19597,
    "name": "Instituto Español de Oceanografía. Centro Oceanográfico de Canarias (CSIC)",
    "key": "f9e917c0-05a8-4163-afa5-49e26df1708b",
    "active": true,
    "displayOnNHCPortal": true
  },
  {
    "name": "Instituto Español de Oceanografía. Centro Oceanográfico de Cádiz (CSIC)",
    "key": "58d43d88-b353-48ac-90d7-25e058d79360",
    "active": true,
    "displayOnNHCPortal": true
  },
  {
    "name": "Instituto Mediterráneo de Estudios Avanzados (CSIC)",
    "key": "f592046c-a54a-4c16-ac06-2f0ccb4889ad",
    "active": true,
    "displayOnNHCPortal": true
  },
  {
    "latitude": 37.16585,
    "longitude": -3.59097,
    "name": "Estación Experimental del Zaidín (CSIC)",
    "key": "5558fdf0-01f2-49f0-985a-55eaf6492283",
    "active": true,
    "displayOnNHCPortal": true
  },
  {
    "latitude": 2.80031,
    "longitude": 41.68316,
    "name": "Centro de Estudios Avanzados de Blanes (CSIC)",
    "key": "257a3f18-8269-42d9-90ef-03bee44ca73c",
    "active": true,
    "displayOnNHCPortal": true
  },
  {
    "latitude": 40.13776,
    "longitude": 0.1653,
    "name": "Instituto de Acuicultura de Torre de la Sal (CSIC)",
    "key": "c21732d6-aa6d-4261-921b-714ec6792980",
    "active": true,
    "displayOnNHCPortal": true
  },
  {
    "latitude": 7.88817,
    "longitude": -76.62813,
    "name": "Instituto Colombiano de Medicina Tropical - ICTM",
    "key": "e1d07377-f9a6-4a2a-9faa-eec05ce29f47",
    "active": true,
    "displayOnNHCPortal": true
  },
  {
    "latitude": 4.44985,
    "longitude": -75.22305,
    "name": "Corporación San Jorge",
    "key": "478e01ca-cc76-4b22-92d6-4e4a27767be3",
    "active": true,
    "displayOnNHCPortal": true
  },
  {
    "latitude": 3.31683,
    "longitude": -76.49366,
    "name": "Fundación Centro de Primates",
    "key": "8aeba9ad-436c-49ab-9f14-8c705795795d",
    "active": true,
    "displayOnNHCPortal": true
  },
  {
    "latitude": 4.66867,
    "longitude": -74.05935,
    "name": "Asociación Colombiana de Ictiólogos",
    "key": "e6e13d44-7755-477c-a1af-f49a6d2c521b",
    "active": true,
    "displayOnNHCPortal": true
  },
  {
    "name": "Fundación Universitaria de San Gil",
    "key": "d52f5909-5d78-41ba-9fb0-362d8357bd21",
    "active": true,
    "displayOnNHCPortal": true
  },
  {
    "latitude": 6.2802,
    "longitude": -75.58284,
    "name": "Tecnológico de Antioquia",
    "key": "a801f910-298a-4a7e-b764-b82e415c2fdb",
    "active": true,
    "displayOnNHCPortal": true
  },
  {
    "latitude": 4.79365,
    "longitude": -75.6891,
    "name": "Universidad Tecnológica de Pereira",
    "key": "eea14cfa-c690-4ea1-81c1-6a2dacb6896f",
    "active": true,
    "displayOnNHCPortal": true
  },
  {
    "latitude": 4.71141,
    "longitude": -74.03234,
    "name": "Universidad El Bosque",
    "key": "ec89138c-d077-4749-8310-327c60c3ea2e",
    "active": true,
    "displayOnNHCPortal": true
  },
  {
    "name": "Universidad EAFIT",
    "key": "e12cc193-0020-4ca3-aa8b-824e8feb24a0",
    "active": true,
    "displayOnNHCPortal": true
  },
  {
    "latitude": 6.15006,
    "longitude": -75.36649,
    "name": "Universidad Católica de Oriente",
    "key": "68f414e7-ebea-48a3-ad6d-38ee11ee2ca3",
    "active": true,
    "displayOnNHCPortal": true
  },
  {
    "latitude": 6.24534,
    "longitude": -75.55105,
    "name": "Instituto Tecnológico Metropolitano",
    "key": "7f1b4fa2-79ea-4cba-941b-8abea1bdb6a6",
    "active": true,
    "displayOnNHCPortal": true
  },
  {
    "latitude": 3.43626,
    "longitude": -76.53897,
    "name": "Instituto para la Investigación y la Preservación del Patrimonio Cultural y Natural del Valle del Cauca - INCIVA",
    "key": "74e5d829-5e85-47f6-bf7f-0affc08719ca",
    "numberSpecimens": 13000,
    "active": true,
    "displayOnNHCPortal": true
  },
  {
    "latitude": 4.64159,
    "longitude": -74.09514,
    "name": "Instituto Nacional de Salud",
    "key": "45d12ab5-22de-45ba-95a8-ece59d6b8a05",
    "active": true,
    "displayOnNHCPortal": true
  },
  {
    "latitude": 4.51183,
    "longitude": -75.65082,
    "name": "Jardín Botánico del Quindío",
    "key": "0b1f7fc8-a1b7-4213-a44e-b366543374a2",
    "active": true,
    "displayOnNHCPortal": true
  },
  {
    "latitude": 4.9897,
    "longitude": -75.59932,
    "name": "Centro Nacional de Investigaciones del Café - Cenicafé",
    "key": "17d5f7ac-54f3-4843-b775-f4f51d947da6",
    "active": true,
    "displayOnNHCPortal": true
  },
  {
    "latitude": 3.66627,
    "longitude": -76.58344,
    "name": "Corporación Colombiana de Investigación Agropecuaria - AGROSAVIA",
    "key": "fab4367a-1b4f-4a7d-9037-48d746250dd3",
    "active": true,
    "displayOnNHCPortal": true
  },
  {
    "latitude": 7.11889,
    "longitude": -73.11937,
    "name": "CDMB - Corporación Autónoma Regional Para la Defensa de la Meseta de Bucaramanga",
    "key": "30178fc1-e81e-42ac-84d4-427b56f06a5e",
    "active": true,
    "displayOnNHCPortal": true
  },
  {
    "latitude": 5.629779,
    "longitude": -0.179343,
    "name": "Council for Scientific and Industrial Research-Food Research Institute",
    "key": "a2e69864-6644-47e8-b869-1b698dc0d3bc",
    "active": false,
    "displayOnNHCPortal": true
  },
  {
    "latitude": 59.89302,
    "longitude": 11.12593,
    "name": "Nordre Øyeren Bird Observatory",
    "key": "cf68b61e-a6e6-4483-a97b-1ad7eb21188b",
    "active": false,
    "displayOnNHCPortal": true
  },
  {
    "latitude": -2.892295,
    "longitude": -79.036653,
    "name": "Museo del Laboratorio de Ecología Acuática de la Universidad de Cuenca",
    "key": "6e489c49-8037-4e6e-b069-038f423082fe",
    "active": true,
    "displayOnNHCPortal": true
  },
  {
    "name": "Yamaguchi Prefectural Museum",
    "key": "c13adcfd-e76c-4d58-9595-f48a18ce3868",
    "active": true,
    "displayOnNHCPortal": true
  },
  {
    "name": "Museo de Ciencias Naturales \"P. Antonio Scasso\"",
    "key": "29cf6409-04a0-4489-bdb8-162426fef836",
    "active": true,
    "displayOnNHCPortal": true
  },
  {
    "latitude": 36.01344,
    "longitude": 127.75901,
    "name": "Muju Insect Museum",
    "key": "2ac35f5e-12c0-4e87-95f7-8fd190284889",
    "active": true,
    "displayOnNHCPortal": true
  },
  {
    "latitude": 42.1191,
    "longitude": 2.76502,
    "name": "Darder Natural History Museum of Banyoles",
    "key": "3d7a4d47-c970-45ce-9c29-b09a6375a489",
    "active": true,
    "displayOnNHCPortal": true
  },
  {
    "name": "Ájtte Museum",
    "key": "c705c732-157f-404b-aa19-47ffccca2fd3",
    "active": true,
    "displayOnNHCPortal": true
  },
  {
    "latitude": 36.096759,
    "longitude": -94.17959,
    "name": "Arkansas Archeological Survey",
    "key": "b3dd05dc-3a3f-4ad9-9b13-158f7bab274c",
    "numberSpecimens": 10000000,
    "active": true,
    "displayOnNHCPortal": true
  },
  {
    "latitude": -3.98714,
    "longitude": -79.197751,
    "name": "Museo de Zoología, Universidad Técnica Particular de Loja",
    "key": "7d014689-22c7-497b-9201-21088c802c31",
    "active": true,
    "displayOnNHCPortal": true
  },
  {
    "latitude": -1.708042,
    "longitude": -48.876667,
    "name": "Instituto Federal de Educação Ciência e Tecnologia do Pará, Campus Abaetetuba",
    "key": "a73c63c0-6c66-46ce-93d7-341c5c7a56c1",
    "active": true,
    "displayOnNHCPortal": true
  },
  {
    "latitude": 42.10992,
    "longitude": -80.15454,
    "name": "Pennsylvania Sea Grant",
    "key": "565dfc8b-67bc-4ada-a1bd-456bb01a25b2",
    "active": true,
    "displayOnNHCPortal": true
  },
  {
    "latitude": 42.435763,
    "longitude": 19.259872,
    "name": "Natural History Museum of Montenegro",
    "key": "8ac34b4f-3119-47c1-8add-3d5704c78eae",
    "active": true,
    "displayOnNHCPortal": true
  },
  {
    "latitude": 30.077774,
    "longitude": 31.283975,
    "name": "Faculty of Science, Ain Shams University",
    "key": "25c8a17b-1111-422a-9654-31ec7f2ad4d0",
    "active": true,
    "displayOnNHCPortal": true
  },
  {
    "latitude": 6.71113,
    "longitude": 80.79181,
    "name": "Sabaragamuwa University of Sri Lanka",
    "key": "c6afe41e-a317-4dbb-904a-dc57e9b7da87",
    "active": true,
    "displayOnNHCPortal": true
  },
  {
    "latitude": -6.362721,
    "longitude": -79.032348,
    "name": "Herbario Nor Peruano",
    "key": "c40721bb-842b-43b6-b282-c5f3474f2a66",
    "active": true,
    "displayOnNHCPortal": true
  },
  {
    "latitude": -27.769057,
    "longitude": -64.266639,
    "name": "Facultad de Ciencias Forestales. Universidad Nacional de Santiago del Estero. Argentina",
    "key": "142dd1ac-f27b-4a49-bbc8-d43ba6a65ab0",
    "active": true,
    "displayOnNHCPortal": true
  },
  {
    "latitude": 6.073333,
    "longitude": 80.204194,
    "name": "University of Ruhuna, Sri Lanka",
    "key": "3c077c9b-e95d-4123-911d-fe40231c7734",
    "active": true,
    "displayOnNHCPortal": true
  },
  {
    "latitude": 32.368889,
    "longitude": -86.178333,
    "name": "Auburn University at Montgomery",
    "key": "5f06d6ce-b577-4a33-817a-1024fe9c73d3",
    "active": true,
    "displayOnNHCPortal": true
  },
  {
    "latitude": 9.4987,
    "longitude": 76.3291,
    "name": "St Joseph''s College for Women",
    "key": "2f1105ee-3d87-4762-8888-035d6dc14243",
    "active": true,
    "displayOnNHCPortal": true
  },
  {
    "latitude": 33.783184,
    "longitude": 72.723076,
    "name": "University of Wah",
    "key": "4c0c2e85-48dc-4342-a9de-e767db4a61e0",
    "active": true,
    "displayOnNHCPortal": true
  },
  {
    "latitude": -25.614611,
    "longitude": -54.556069,
    "name": "Instituto Misionero de Biodiversidad",
    "key": "0e4fba3c-b19e-4feb-b56c-9c2c0cdd2e59",
    "active": true,
    "displayOnNHCPortal": true
  },
  {
    "latitude": 55.834808,
    "longitude": 37.547858,
    "name": "Russian State Agrarian University – Moscow Timiryazev Agricultural Academy",
    "key": "060b93e2-96d6-40b2-b4a7-73bb28a84d67",
    "active": true,
    "displayOnNHCPortal": true
  },
  {
    "latitude": 53.4761,
    "longitude": 49.359514,
    "name": "Samara Federal Research Scientific Center of Russian Academy of Sciences",
    "key": "91b3803b-cc2b-4a23-a6e8-470c12f1ed7b",
    "active": true,
    "displayOnNHCPortal": true
  },
  {
    "latitude": 19.769216,
    "longitude": -97.691388,
    "name": "Center for Rural Development Studies (CESDER)",
    "key": "e6c60d87-31e7-46ae-8b68-4ff0e7314343",
    "active": true,
    "displayOnNHCPortal": true
  },
  {
    "latitude": 41.012559,
    "longitude": -85.762178,
    "name": "Manchester University",
    "key": "717ad954-d8b0-4861-a571-5350b255f31d",
    "active": true,
    "displayOnNHCPortal": true
  },
  {
    "latitude": 57.199623,
    "longitude": 65.555044,
    "name": "Tyumen State University",
    "key": "27481847-057e-4ce0-b3e0-6a04619caded",
    "active": true,
    "displayOnNHCPortal": true
  },
  {
    "latitude": 52.214117,
    "longitude": 20.64489,
    "name": "Plant Breeding and Acclimatization Institute - National Research Institute",
    "key": "c7c32bee-e97d-456c-82f3-a76684960add",
    "active": true,
    "displayOnNHCPortal": true
  },
  {
    "latitude": 31.094886,
    "longitude": 30.949598,
    "name": "Faculty of Science, Kafr Elsheikh University",
    "key": "f1eb9153-6db9-428b-8075-fae319181ede",
    "active": true,
    "displayOnNHCPortal": true
  },
  {
    "latitude": 4.975442,
    "longitude": 114.893518,
    "name": "Universiti Brunei Darussalam",
    "key": "d63bedaa-fd03-4979-b7a5-58226ef031f4",
    "active": true,
    "displayOnNHCPortal": true
  },
  {
    "latitude": 28.7647,
    "longitude": 115.8277,
    "name": "Herbarium of Fungi of Jiangxi Agricultural University",
    "key": "935e97af-7f4b-434a-bf1b-fca135bea9da",
    "active": true,
    "displayOnNHCPortal": true
  },
  {
    "latitude": 30.50774,
    "longitude": -98.025099,
    "name": "U.S. Fish and Wildlife Service",
    "key": "88dd5686-1e6b-4565-bad3-d3eba296f2f3",
    "active": true,
    "displayOnNHCPortal": true
  },
  {
    "latitude": 30.4295,
    "longitude": -88.4279,
    "name": "Mississippi Department of Marine Resources / Grand Bay National Estuarine Research Reserve",
    "key": "2a018362-6bd3-424c-b0f8-aa6063f07f23",
    "active": true,
    "displayOnNHCPortal": true
  },
  {
    "latitude": 52.51314,
    "longitude": 4.66606,
    "name": "Herbarium Sander van Zon",
    "key": "5b1de028-e9c6-46fe-a478-7ff469322072",
    "active": true,
    "displayOnNHCPortal": true
  },
  {
    "latitude": 12.123095,
    "longitude": 14.999704,
    "name": "IRED : Institut de Recherche en Elevage pour le Développement",
    "key": "c1dff158-b3c0-44a7-b53f-366f3e7ef1f9",
    "active": true,
    "displayOnNHCPortal": true
  },
  {
    "latitude": 35.139682,
    "longitude": 126.928801,
    "name": "Chosun University",
    "key": "b629cf3d-0f9e-4046-98d3-e5be814b3d2d",
    "active": true,
    "displayOnNHCPortal": true
  },
  {
    "latitude": 31.094886,
    "longitude": 30.949598,
    "name": "Faculty of Science, Kafr Elsheikh University",
    "key": "3942533e-b069-4fd0-bab6-e0d611d22ee8",
    "active": true,
    "displayOnNHCPortal": true
  },
  {
    "latitude": -18.978031,
    "longitude": 34.351769,
    "name": "Gorongosa National Park",
    "key": "26c4f86f-4eca-4dc4-a411-058d72df82e6",
    "active": true,
    "displayOnNHCPortal": true
  },
  {
    "latitude": 46.556686,
    "longitude": 24.5833,
    "name": "George Emil Palade University of Medicine, Pharmacy, Science and Technology of Targu Mures",
    "key": "c36e19e5-832e-4d07-b219-a99783532531",
    "active": true,
    "displayOnNHCPortal": true
  },
  {
    "latitude": 13.06425,
    "longitude": 80.23435,
    "name": "Loyola College, PB 3301, Chennai",
    "key": "b252c8fa-19f1-428f-988f-2488624ff169",
    "active": true,
    "displayOnNHCPortal": true
  },
  {
    "latitude": 69.120637,
    "longitude": -105.041674,
    "name": "Polar Knowledge Canada",
    "key": "a9ac9978-8ae7-480b-897d-f4ded4877bf4",
    "active": true,
    "displayOnNHCPortal": true
  },
  {
    "latitude": 6.90164,
    "longitude": 79.85863,
    "name": "University of Colombo",
    "key": "4272b0ec-98c8-4e75-84a5-486246b325ad",
    "active": true,
    "displayOnNHCPortal": true
  },
  {
    "latitude": 28.168736,
    "longitude": -80.671796,
    "name": "Eastern Florida State College",
    "key": "f7385238-3378-4ece-8f40-9f0b426e2bf4",
    "active": true,
    "displayOnNHCPortal": true
  },
  {
    "latitude": -29.15644,
    "longitude": -67.47083,
    "name": "Universidad Nacional de Chilecito",
    "key": "7c7464c8-97cb-450d-a1fe-eb55fa486e88",
    "active": false,
    "displayOnNHCPortal": true
  },
  {
    "latitude": 7.291418,
    "longitude": 80.636696,
    "name": "National Institute of Fundamental Studies",
    "key": "baf4787d-790b-485a-b4a6-4be64b70e8f0",
    "active": true,
    "displayOnNHCPortal": true
  },
  {
    "latitude": 26.710589,
    "longitude": 88.352133,
    "name": "University of North Bengal",
    "key": "61637d6c-0b03-4e2b-a451-95de28f434dd",
    "active": true,
    "displayOnNHCPortal": true
  },
  {
    "latitude": 30.061378,
    "longitude": 108.363681,
    "name": "Qinling National Botanical Garden",
    "key": "5a6f507d-0781-402e-9891-a9b108025602",
    "active": true,
    "displayOnNHCPortal": true
  },
  {
    "latitude": -12.132198,
    "longitude": -76.980842,
    "name": "Universidad Ricardo Palma",
    "key": "55ab5fad-049d-47c1-987d-9e0d7eb4d3e8",
    "active": true,
    "displayOnNHCPortal": true
  },
  {
    "latitude": 9.9709,
    "longitude": 76.281,
    "name": "Maharaja's College",
    "key": "a7e8816e-d93e-4249-a382-77fe4570ed6d",
    "active": true,
    "displayOnNHCPortal": true
  },
  {
    "latitude": 1.7081,
    "longitude": 48.8767,
    "name": "Instituto Federal de Educação Ciência e Tecnologia do Pará, Campus Abaetetuba",
    "key": "f92a79fc-c94d-4769-a04a-a7274b376ed2",
    "active": true,
    "displayOnNHCPortal": true
  },
  {
    "latitude": -6.48528,
    "longitude": -36.149648,
    "name": "Universidade Federal de Campina Grande",
    "key": "320425f4-02b1-4e8e-ba0f-99b45ee694d7",
    "active": true,
    "displayOnNHCPortal": true
  },
  {
    "latitude": 37.974444,
    "longitude": 46.0475,
    "name": "East Azarbaijan Agricultural and Natural Resources Research and Education Center",
    "key": "961fa222-bdfc-4695-8d36-b55080363ad9",
    "active": true,
    "displayOnNHCPortal": true
  },
  {
    "latitude": 32.35276,
    "longitude": 50.82615,
    "name": "Chaharmahal and Bakhtiari Agricultural and Natural Resources Research and Education Center",
    "key": "b79da63e-7674-4838-b9b8-9c452d177cee",
    "active": true,
    "displayOnNHCPortal": true
  },
  {
    "latitude": 10.871431,
    "longitude": 106.789378,
    "name": "Nong Lam University",
    "key": "51ad1494-0660-4392-a93c-429c8187e46c",
    "active": true,
    "displayOnNHCPortal": true
  },
  {
    "latitude": 46.836017,
    "longitude": -92.207139,
    "name": "University of Minnesota Duluth",
    "key": "92528bd9-1835-48ad-bc83-7240d3f9f144",
    "active": true,
    "displayOnNHCPortal": true
  },
  {
    "latitude": 8.3636,
    "longitude": 80.5042,
    "name": "Rajarata University of Sri Lanka",
    "key": "36ff3256-f556-4cfa-b243-d0fc91fa6fa1",
    "active": true,
    "displayOnNHCPortal": true
  },
  {
    "latitude": 37.929714,
    "longitude": 14.086932,
    "name": "Museo Naturalistico Francesco Minà Palumbo",
    "key": "81ee734c-84ac-4ecb-ad32-eb0492b1776b",
    "active": true,
    "displayOnNHCPortal": true
  },
  {
    "latitude": 44.801905,
    "longitude": -0.608851,
    "name": "PACEA laboratory of the University of Bordeaux",
    "key": "f8b538e6-f4a2-4c07-8159-b41d0fd28b65",
    "numberSpecimens": 3000,
    "active": true,
    "displayOnNHCPortal": true
  },
  {
    "name": "Sagamihara City Museum",
    "key": "4a4f2c3f-92c0-40d1-8f85-926ba00bc8fa",
    "active": true,
    "displayOnNHCPortal": true
  },
  {
    "latitude": 26.570971,
    "longitude": 118.11647,
    "name": "Fujian Agriculture and Forestry University",
    "key": "2561208c-cb45-4360-bd7e-53a282380d04",
    "numberSpecimens": 70000,
    "active": true,
    "displayOnNHCPortal": true
  },
  {
    "latitude": -5.182676,
    "longitude": 119.441857,
    "name": "Universitas Muhammadiyah Makassar",
    "key": "e55157f6-aac9-4f36-8b58-2888ab74bc9f",
    "active": true,
    "displayOnNHCPortal": true
  },
  {
    "latitude": 63.124572,
    "longitude": 10.259844,
    "name": "Norwegian Institute for Nature Research",
    "key": "2482559b-f103-4f35-8e75-e6119a4e2525",
    "active": true,
    "displayOnNHCPortal": true
  },
  {
    "latitude": 9.0385,
    "longitude": 38.7615,
    "name": "National Museum of Ethiopia in Addis Ababa, Ethiopia",
    "key": "f881d2dd-aa35-43b1-9873-7eeae63a88c4",
    "active": true,
    "displayOnNHCPortal": true
  },
  {
    "name": "Staatliche Naturwissenschaftliche Sammlungen Bayerns",
    "key": "27a041cf-1b25-4007-989b-3f3ae21e1ab4",
    "active": true,
    "displayOnNHCPortal": true
  },
  {
    "latitude": 31.353637,
    "longitude": 106.171875,
    "name": "SNSB-Jura-Museum Eichstätt",
    "key": "34c77e10-42f9-41ce-92a6-8ba3206898ea",
    "numberSpecimens": 0,
    "active": true,
    "displayOnNHCPortal": true
  },
  {
    "latitude": 43.836004,
    "longitude": 144.088456,
    "name": "Bihoro Museum",
    "key": "2c775dcb-1c1b-4f70-a31d-40dd01924bab",
    "numberSpecimens": 40636,
    "active": true,
    "displayOnNHCPortal": true
  },
  {
    "latitude": -1.312311,
    "longitude": 36.699003,
    "name": "African Butterfly Research Institute",
    "key": "26fb2c12-2afb-4d20-b81a-18a45c420aec",
    "numberSpecimens": 1000000,
    "active": true,
    "displayOnNHCPortal": true
  },
  {
    "latitude": 59.34672,
    "longitude": 18.07262,
    "name": "KTH Royal Institute of Technology",
    "key": "6ba467ae-5cc5-4510-a624-3c0adcc64b76",
    "numberSpecimens": 0,
    "active": true,
    "displayOnNHCPortal": true
  },
  {
    "name": "Museum Heiden",
    "key": "a12d7f74-d968-4423-bc6a-a4de190fbcca",
    "numberSpecimens": 900,
    "active": true,
    "displayOnNHCPortal": true
  },
  {
    "latitude": 47.40454,
    "longitude": 8.61023,
    "name": "Eawag aquatic research",
    "key": "722c63ef-2ebe-4008-951f-62221ff15917",
    "numberSpecimens": 18219,
    "active": true,
    "displayOnNHCPortal": true
  },
  {
    "latitude": 46.49298,
    "longitude": 6.47918,
    "name": "Maison de la Rivière",
    "key": "6dd8d5b3-9668-4dbc-9f68-c5d780b4767a",
    "numberSpecimens": 1470,
    "active": true,
    "displayOnNHCPortal": true
  },
  {
    "latitude": 46.52358,
    "longitude": 6.6338,
    "name": "Musée cantonal de géologie, Lausanne",
    "key": "9e597ef1-6ce0-4677-b311-014739a27603",
    "numberSpecimens": 1000000,
    "active": true,
    "displayOnNHCPortal": true
  },
  {
    "latitude": 41.938878,
    "longitude": -8.749369,
    "name": "Natural History Museum of the Iberian Peninsula - NatMIP (\"Museu de História Natural da Península Ibérica\")",
    "key": "236ef434-c8b5-4f45-9d2c-e8c85a951acd",
    "numberSpecimens": 200,
    "active": true,
    "displayOnNHCPortal": true
  },
  {
    "latitude": 53.53515,
    "longitude": -113.32361,
    "name": "Alberta Conservation Association",
    "key": "6715ebda-3df3-4ae3-b120-882b5ebbfa95",
    "numberSpecimens": 0,
    "active": true,
    "displayOnNHCPortal": true
  },
  {
    "latitude": 37.99183,
    "longitude": 112.52889,
    "name": "Taiyuan Botanical Garden",
    "key": "a2e50ff3-62ae-419a-8749-455342e0b455",
    "numberSpecimens": 0,
    "active": true,
    "displayOnNHCPortal": true
  },
  {
    "latitude": 25.895407,
    "longitude": -103.600331,
    "name": "Universidad Autónoma Chapingo",
    "key": "09e6318c-0ec1-4ae0-b32d-e4c3b210b93e",
    "numberSpecimens": 0,
    "active": true,
    "displayOnNHCPortal": true
  },
  {
    "latitude": 43.85435,
    "longitude": 18.395591,
    "name": "Sarajevo University, Faculty of Science",
    "key": "49efc929-ebe7-419d-8d0c-e22d984c30a8",
    "numberSpecimens": 0,
    "active": true,
    "displayOnNHCPortal": true
  },
  {
    "latitude": 8.50269,
    "longitude": 76.94903,
    "name": "University College, Thiruvananthapuram",
    "key": "a689340f-f710-4766-86b5-6a677fee3152",
    "numberSpecimens": 0,
    "active": true,
    "displayOnNHCPortal": true
  },
  {
    "latitude": 33.6007,
    "longitude": 73.0679,
    "name": "Rawalpindi Women University",
    "key": "df33a6ee-29cb-49a3-bbb6-24c7996daa27",
    "numberSpecimens": 0,
    "active": true,
    "displayOnNHCPortal": true
  },
  {
    "latitude": 8.5039,
    "longitude": 76.951,
    "name": "University College Thiruvananthapuram",
    "key": "7f34d522-1b84-4a7c-a925-35ed0dbb7a23",
    "numberSpecimens": 0,
    "active": true,
    "displayOnNHCPortal": true
  },
  {
    "latitude": 16.43734,
    "longitude": 74.59596,
    "name": "B K. College Chikodi",
    "key": "83df82e4-67cf-4486-8baf-c52d161e4f34",
    "numberSpecimens": 0,
    "active": true,
    "displayOnNHCPortal": true
  },
  {
    "latitude": 41.133735,
    "longitude": -73.725846,
    "name": "Louis Calder Biological Field Station of Fordham University",
    "key": "958704b4-9206-4518-9679-7bf71aa7a4c6",
    "numberSpecimens": 0,
    "active": true,
    "displayOnNHCPortal": true
  },
  {
    "latitude": 22.468803,
    "longitude": 88.093464,
    "name": "ULUBERIA BOTANICAL INSTITUTE",
    "key": "399d6d6b-1c99-43d0-865a-227a654d3132",
    "numberSpecimens": 0,
    "active": true,
    "displayOnNHCPortal": true
  },
  {
    "latitude": 12.39299,
    "longitude": 75.0917,
    "name": "Central University of Kerala",
    "key": "dd22d600-633e-4be3-b90a-6164df5f3ddb",
    "numberSpecimens": 0,
    "active": true,
    "displayOnNHCPortal": true
  },
  {
    "latitude": 37.68451,
    "longitude": 140.453448,
    "name": "Fukushima University",
    "key": "e52c1f40-2cca-456e-8e3b-511d1b7bb136",
    "numberSpecimens": 0,
    "active": true,
    "displayOnNHCPortal": true
  },
  {
    "latitude": -26.801463,
    "longitude": -60.447028,
    "name": "Universidad Nacional del Chaco Austral",
    "key": "4db361d2-ab25-4c45-a5a7-50de1f4318b1",
    "numberSpecimens": 0,
    "active": false,
    "displayOnNHCPortal": true
  },
  {
    "latitude": 34.343,
    "longitude": 58.674,
    "name": "Gonabad univercity of medical science",
    "key": "79c651d9-d291-4ed9-a16c-650b385cab4e",
    "numberSpecimens": 0,
    "active": true,
    "displayOnNHCPortal": true
  },
  {
    "latitude": -26.801463,
    "longitude": -60.447028,
    "name": "Universidad Nacional del Chaco Austral",
    "key": "e26beba1-cbd1-4357-99a5-cf8514fe1aaa",
    "numberSpecimens": 0,
    "active": true,
    "displayOnNHCPortal": true
  },
  {
    "latitude": 34.766602,
    "longitude": 126.366513,
    "name": "Honam National Institute of Biological Resources",
    "key": "fb28874b-66ac-4fae-b647-b404df57849a",
    "numberSpecimens": 0,
    "active": true,
    "displayOnNHCPortal": true
  },
  {
    "latitude": 50.20145,
    "longitude": 15.835874,
    "name": "Charles University, Faculty Of Pharmacy",
    "key": "7920767a-1994-45b6-9bfc-271f17dfef05",
    "numberSpecimens": 0,
    "active": true,
    "displayOnNHCPortal": true
  },
  {
    "latitude": 18.01241,
    "longitude": 79.55611,
    "name": "Vaagdevi Degree & PG College",
    "key": "7896577c-5a7c-4b04-b6dc-43a379ae1927",
    "numberSpecimens": 0,
    "active": true,
    "displayOnNHCPortal": true
  },
  {
    "latitude": 50.517249,
    "longitude": 13.639213,
    "name": "Oblastní muzeum a galerie v Mostě",
    "key": "d2f56751-7782-48cf-ba0e-8d16cb37b8b0",
    "numberSpecimens": 0,
    "active": true,
    "displayOnNHCPortal": true
  },
  {
    "latitude": 26.6947,
    "longitude": 127.8808,
    "name": "Okinawa Churashima Foundation",
    "key": "443a03e7-9ae8-4a4d-828b-a2cae629130e",
    "numberSpecimens": 0,
    "active": true,
    "displayOnNHCPortal": true
  },
  {
    "latitude": 30.22807,
    "longitude": -97.753665,
    "name": "Saint Edward's University",
    "key": "a6d49988-3807-4994-bc73-c69093f0e0f8",
    "numberSpecimens": 0,
    "active": true,
    "displayOnNHCPortal": true
  },
  {
    "latitude": 40.744445,
    "longitude": 30.328056,
    "name": "Sakarya University",
    "key": "599c6720-a586-4863-99f6-0cbd3273db22",
    "numberSpecimens": 0,
    "active": true,
    "displayOnNHCPortal": true
  },
  {
    "latitude": 29.3899,
    "longitude": -95.0442,
    "name": "University of Houston Coastal Center",
    "key": "f51be9dd-f09a-4d16-9c63-e5086245f09d",
    "numberSpecimens": 0,
    "active": true,
    "displayOnNHCPortal": true
  },
  {
    "latitude": 58.202373,
    "longitude": 68.25579,
    "name": "Tobolsk Complex Scientific Station of the Ural Branch of the Russian Academy of Sciences",
    "key": "d1feff37-0344-475e-9410-d57ee90e15f0",
    "numberSpecimens": 0,
    "active": true,
    "displayOnNHCPortal": true
  },
  {
    "latitude": 48.231688,
    "longitude": -79.008728,
    "name": "Université du Québec en Abitibi-Témiscamingue",
    "key": "be6ff709-6b88-4e08-95cb-04b05d2ec10d",
    "numberSpecimens": 0,
    "active": true,
    "displayOnNHCPortal": true
  },
  {
    "latitude": 14.1599,
    "longitude": 121.2447,
    "name": "Institute of Crop Science, College of Agriculture and Food Science, University of the Philippines Los Baños",
    "key": "d7836256-1d57-4f76-b0fd-559315b8953c",
    "numberSpecimens": 0,
    "active": true,
    "displayOnNHCPortal": true
  },
  {
    "latitude": 42.52656,
    "longitude": -74.1588,
    "name": "Edmund Niles Huyck Preserve, Inc.",
    "key": "863357ff-4aba-43fc-b2b8-faed1154532c",
    "numberSpecimens": 0,
    "active": true,
    "displayOnNHCPortal": true
  },
  {
    "latitude": -4.448975,
    "longitude": 48.40302,
    "name": "Conservatoire botanique national de Brest",
    "key": "9cadd784-769c-4693-a607-f91f6425c6c5",
    "numberSpecimens": 0,
    "active": true,
    "displayOnNHCPortal": true
  },
  {
    "latitude": 29.462228,
    "longitude": -98.466939,
    "name": "Witte Museum",
    "key": "a918d8f5-47e9-4d60-bf31-5721cf65e2ad",
    "numberSpecimens": 0,
    "active": true,
    "displayOnNHCPortal": true
  },
  {
    "latitude": 25.04482,
    "longitude": 102.68696,
    "name": "Kunming Medical University",
    "key": "1118dbea-9676-41fc-b3cb-932818080f1a",
    "numberSpecimens": 0,
    "active": true,
    "displayOnNHCPortal": true
  },
  {
    "latitude": 30.8684,
    "longitude": 73.568,
    "name": "University of Okara",
    "key": "cbe98b8a-072b-4dfc-a3e4-f1de2676710a",
    "numberSpecimens": 0,
    "active": true,
    "displayOnNHCPortal": true
  },
  {
    "latitude": 59.736505,
    "longitude": 30.428102,
    "name": "Federal State Budget Scientific Institution “All-Russian Institute of Plant Protection”, (FSBSI VIZR)",
    "key": "e5123e66-9379-4023-b72f-578e8272c7c0",
    "numberSpecimens": 0,
    "active": true,
    "displayOnNHCPortal": true
  },
  {
    "latitude": 51.1103,
    "longitude": 71.4168,
    "name": "Astana Botanical Garden",
    "key": "ec7cdf67-d32f-4201-9679-f20dc2faea54",
    "numberSpecimens": 0,
    "active": true,
    "displayOnNHCPortal": true
  },
  {
    "latitude": 57.89146,
    "longitude": 60.00579,
    "name": "Nizhny Tagil State Social Pedagogical Institute of Russian State Vocational Pedagogical University",
    "key": "85617687-1d24-4cb4-9f2c-aa8f0c3f16c4",
    "numberSpecimens": 0,
    "active": true,
    "displayOnNHCPortal": true
  },
  {
    "latitude": 23.1092,
    "longitude": 112.4893,
    "name": "Zhaoqing University",
    "key": "acef368c-4d17-4f9c-bd50-9d4dc9705986",
    "numberSpecimens": 0,
    "active": true,
    "displayOnNHCPortal": true
  },
  {
    "latitude": 39.65044,
    "longitude": 66.96493,
    "name": "Samarkand state university",
    "key": "ea338f65-4a88-4a40-8709-43388b00a3d7",
    "numberSpecimens": 0,
    "active": true,
    "displayOnNHCPortal": true
  },
  {
    "latitude": 54.19107,
    "longitude": 37.61849,
    "name": "The State Institution of Tula Region Culture the Association Historical, Regional & Art Museum",
    "key": "55a5cc72-14ca-4c9c-ab23-4164776fff69",
    "numberSpecimens": 0,
    "active": true,
    "displayOnNHCPortal": true
  },
  {
    "latitude": 54.186384,
    "longitude": 37.610619,
    "name": "State museum-reserved \"Kulikovo Field\"",
    "key": "434e9b9a-2013-431a-ba11-35c082376899",
    "numberSpecimens": 0,
    "active": true,
    "displayOnNHCPortal": true
  },
  {
    "latitude": 41.323417,
    "longitude": -73.396601,
    "name": "Highstead Foundation",
    "key": "0b3b9018-8e0e-404a-8539-e437dcf78aaf",
    "numberSpecimens": 0,
    "active": true,
    "displayOnNHCPortal": true
  },
  {
    "latitude": 32.847354,
    "longitude": -97.475846,
    "name": "Fort Worth Nature Center and Refuge",
    "key": "b8609395-f310-43bc-95f8-2ca03f5a7a55",
    "numberSpecimens": 0,
    "active": true,
    "displayOnNHCPortal": true
  },
  {
    "latitude": 36.89904,
    "longitude": 30.65544,
    "name": "Akdeniz University",
    "key": "4b4fb82d-d02a-4c22-be88-797660fa714b",
    "numberSpecimens": 0,
    "active": true,
    "displayOnNHCPortal": true
  },
  {
    "latitude": 30.135178,
    "longitude": 74.792009,
    "name": "Central University of Punjab",
    "key": "ae7ce1ad-3836-4bee-afd8-3a9af0d27202",
    "numberSpecimens": 0,
    "active": true,
    "displayOnNHCPortal": true
  },
  {
    "latitude": 25.44658,
    "longitude": 30.53299,
    "name": "Facuity of Science New Valley University, Khaga, Egypt.",
    "key": "2bf15038-f45a-4ee7-9f78-0f853f7ba340",
    "numberSpecimens": 0,
    "active": true,
    "displayOnNHCPortal": true
  },
  {
    "latitude": 39.35747,
    "longitude": -76.52782,
    "name": "Natural History Society of Maryland",
    "key": "273740a1-edac-49bb-a5b9-96f5c8e4d32a",
    "numberSpecimens": 0,
    "active": true,
    "displayOnNHCPortal": true
  },
  {
    "name": "SNSB-Staatssammlung für Anthropologie und Paläoanatomie München",
    "key": "a17337ec-a565-4f19-a4d3-ed4643515ed3",
    "numberSpecimens": 0,
    "active": true,
    "displayOnNHCPortal": true
  },
  {
    "name": "SNSB-Bayerische Staatssammlung fuer Paläontologie und Geologie",
    "key": "791d397d-8f65-4f76-aef5-fec59b07a1b9",
    "numberSpecimens": 0,
    "active": true,
    "displayOnNHCPortal": true
  },
  {
    "latitude": 48.164299,
    "longitude": 11.501296,
    "name": "SNSB-Botanische Staatssammlung München",
    "key": "ae9df492-2b53-4dc3-8925-7360be85c19c",
    "numberSpecimens": 0,
    "active": true,
    "displayOnNHCPortal": true
  },
  {
    "latitude": 50.562313,
    "longitude": 4.70181,
    "name": "Departement d'Etude du Milieu Naturel et Agricole (DEMNA)",
    "key": "7e6d04cf-999f-4756-ba67-8ce2b21237df",
    "numberSpecimens": 0,
    "active": true,
    "displayOnNHCPortal": true
  },
  {
    "latitude": 37.68,
    "longitude": 140.45,
    "name": "Herbarium, University Archives and Collections, Fukushima University",
    "key": "eef9a8e0-abab-48d6-a6fc-ccb5e277c1f2",
    "numberSpecimens": 70000,
    "active": true,
    "displayOnNHCPortal": true
  },
  {
    "latitude": 55.39,
    "longitude": 13.05,
    "name": "Nordic Genetic Resource Center",
    "key": "58ec07bb-2cea-4da2-a416-ded4a98b2d7b",
    "numberSpecimens": 0,
    "active": true,
    "displayOnNHCPortal": true
  },
  {
    "latitude": 47.36039,
    "longitude": 8.45526,
    "name": "Swiss Federal Institute for Forest, Snow and Landscape Research",
    "key": "4863fe5a-e375-4770-978c-226201546980",
    "numberSpecimens": 0,
    "active": true,
    "displayOnNHCPortal": true
  },
  {
    "latitude": 51.212451,
    "longitude": 4.395299,
    "name": "Institute of Tropical Medicine Antwerp",
    "key": "aea0e0b0-b7db-433e-b8d0-9415916bd7eb",
    "numberSpecimens": 0,
    "active": true,
    "displayOnNHCPortal": true
  },
  {
    "latitude": 50.933461,
    "longitude": 5.33977,
    "name": "University of Hasselt",
    "key": "7b24df30-bf7f-4de6-9288-ffc87fc78609",
    "numberSpecimens": 0,
    "active": true,
    "displayOnNHCPortal": true
  },
  {
    "latitude": 51.222448,
    "longitude": 4.407917,
    "name": "University of Antwerp",
    "key": "2a895918-1efd-4af9-9157-ff66464a06fc",
    "numberSpecimens": 0,
    "active": true,
    "displayOnNHCPortal": true
  },
  {
    "latitude": 50.458645,
    "longitude": 3.949988,
    "name": "University of Mons",
    "key": "45f991b6-b598-4585-a399-7e23e031be2b",
    "numberSpecimens": 0,
    "active": true,
    "displayOnNHCPortal": true
  },
  {
    "latitude": 50.877955,
    "longitude": 4.698107,
    "name": "KU Leuven",
    "key": "79f679fb-360e-45d0-a23d-ca318ca379fd",
    "numberSpecimens": 0,
    "active": true,
    "displayOnNHCPortal": true
  },
  {
    "latitude": 50.820781,
    "longitude": 4.388099,
    "name": "Vrije Universiteit Brussel",
    "key": "606455ba-f772-4c7b-870c-7003b77213fd",
    "numberSpecimens": 0,
    "active": true,
    "displayOnNHCPortal": true
  },
  {
    "latitude": 50.811948,
    "longitude": 4.380428,
    "name": "Université Libre de Bruxelles",
    "key": "20cb5997-c659-442b-ae9b-184cc0f4ce38",
    "numberSpecimens": 0,
    "active": true,
    "displayOnNHCPortal": true
  },
  {
    "latitude": 50.866169,
    "longitude": 4.347976,
    "name": "Research Institute for Nature and Forest",
    "key": "df2f787b-e54a-4902-8212-390bb2bc7b21",
    "numberSpecimens": 71238,
    "active": true,
    "displayOnNHCPortal": true
  },
  {
    "latitude": 50.66647,
    "longitude": 4.62016,
    "name": "Belgian Coordinated Collections of Micro-organisms",
    "key": "28b36aa2-3932-4ae9-81fb-c1e9ad12b459",
    "numberSpecimens": 0,
    "active": true,
    "displayOnNHCPortal": true
  },
  {
    "latitude": -41.14235,
    "longitude": -71.2898,
    "name": "INSTITUTO DE INVESTIGACIONES EN RECURSOS NATURALES, AGROECOLOGIA Y DESARROLLO RURAL IRNAD",
    "key": "0c5c370f-e98d-4d3b-b57c-b426fe2f08c0",
    "numberSpecimens": 0,
    "active": true,
    "displayOnNHCPortal": true
  },
  {
    "name": "University museum (Fujukan)",
    "key": "c14b30d3-b3ce-487b-8ba2-a9cbf2ccbcf1",
    "numberSpecimens": 70000,
    "active": true,
    "displayOnNHCPortal": true
  },
  {
    "name": "National Agricultural Research Institute",
    "key": "b9684b7b-2550-47a0-93c5-4bb6fc28cea5",
    "numberSpecimens": 0,
    "active": true,
    "displayOnNHCPortal": true
  },
  {
    "name": "Unidad Multidiciplinaria de Docencia e Investigación, Facultad de Ciencias",
    "key": "094e4de4-3108-4adf-93ea-4e2529f4b34c",
    "numberSpecimens": 0,
    "active": true,
    "displayOnNHCPortal": true
  },
  {
    "latitude": 43.696165,
    "longitude": -72.319628,
    "name": "Vermont Center for Ecostudies",
    "key": "3c5b378d-12f6-4005-b32a-ac00a5996e76",
    "numberSpecimens": 0,
    "active": true,
    "displayOnNHCPortal": true
  },
  {
    "latitude": 59.6662,
    "longitude": 10.7742,
    "name": "Norwegian Institute of Bioeconomy Research",
    "key": "480c22da-d184-45e3-80df-9b8ef9889466",
    "numberSpecimens": 0,
    "active": true,
    "displayOnNHCPortal": true
  },
  {
    "latitude": 19.3325,
    "longitude": -99.183333,
    "name": "Universidad Nacional Autónoma de México",
    "key": "a21be726-de88-4d4e-ab88-87a9d24f4bcb",
    "numberSpecimens": 0,
    "active": true,
    "displayOnNHCPortal": true
  },
  {
    "latitude": 30.1857,
    "longitude": -97.87423,
    "name": "University of Texas at Austin",
    "key": "7a8c1140-ba1e-4467-82ae-1e2ec66c1da1",
    "numberSpecimens": 0,
    "active": true,
    "displayOnNHCPortal": true
  },
  {
    "latitude": 32.716667,
    "longitude": 74.86666,
    "name": "University of Jammu",
    "key": "e3295a7c-5a23-41a9-a99a-eb16540571a8",
    "numberSpecimens": 0,
    "active": true,
    "displayOnNHCPortal": true
  },
  {
    "latitude": 19.4581,
    "longitude": 72.8048,
    "name": "Late Shri. Vishnu Waman Thakur Charitable Trust's Bhaskar Waman Thakur College of Science, Yashvant Keshav Patil College of Commerce, Vidhya Dayanand Patil College of Arts, VIVA College",
    "key": "dfcb5c75-68f4-4999-97f9-0de25ed829af",
    "numberSpecimens": 0,
    "active": true,
    "displayOnNHCPortal": true
  },
  {
    "latitude": 9.4219,
    "longitude": 76.6608,
    "name": "Bishop Abraham Memorial College, Thuruhticad",
    "key": "0ab54192-ed49-4a42-9cfa-78dc89712847",
    "numberSpecimens": 0,
    "active": true,
    "displayOnNHCPortal": true
  },
  {
    "latitude": 5.037507,
    "longitude": 119.743002,
    "name": "Marine Science Museum, Tawi-Tawi College of Technology and Oceanography, Mindanao State University",
    "key": "8dfa4658-b35a-430b-8f60-207ed5045850",
    "numberSpecimens": 0,
    "active": true,
    "displayOnNHCPortal": true
  },
  {
    "latitude": 19.0642,
    "longitude": 72.8352,
    "name": "R. D. & S. H. National College",
    "key": "7978ea8e-d49b-49f9-a356-f1e168d288fc",
    "numberSpecimens": 0,
    "active": true,
    "displayOnNHCPortal": true
  },
  {
    "latitude": 48.206686,
    "longitude": 22.643858,
    "name": "Ferenc Rakoczi II Transcarpathian Hungarian College of Higher Education",
    "key": "387b94f0-995c-4a49-8201-c50b94b4aa5d",
    "numberSpecimens": 0,
    "active": true,
    "displayOnNHCPortal": true
  },
  {
    "latitude": -22.905813,
    "longitude": -43.226549,
    "name": "Museu Nacional/UFRJ",
    "key": "74500a12-385d-46ed-b987-00005cdba42d",
    "numberSpecimens": 0,
    "active": true,
    "displayOnNHCPortal": true
  },
  {
    "latitude": -1.50475,
    "longitude": 29.6362,
    "name": "Dian Fossey Gorilla Fund International",
    "key": "1bc5354b-94ba-4c32-b703-e7b50e4b6872",
    "numberSpecimens": 0,
    "active": true,
    "displayOnNHCPortal": true
  },
  {
    "latitude": 44.94265,
    "longitude": -93.0989,
    "name": "Science Museum of Minnesota",
    "key": "b9cb6359-0172-485e-b696-9fe53e33a9f8",
    "numberSpecimens": 0,
    "active": true,
    "displayOnNHCPortal": true
  },
  {
    "latitude": -27.5,
    "longitude": 153.014,
    "name": "Centre for Mined Land Rehabilitation",
    "key": "17381c36-b96e-409c-9966-4eacc6ce076a",
    "numberSpecimens": 0,
    "active": true,
    "displayOnNHCPortal": true
  },
  {
    "latitude": 40.061855,
    "longitude": -77.520444,
    "name": "Shippensburg University",
    "key": "8df513ae-90ce-4d04-a0cb-494b5f9bbd35",
    "numberSpecimens": 0,
    "active": true,
    "displayOnNHCPortal": true
  },
  {
    "latitude": 41.38974,
    "longitude": -81.69541,
    "name": "Cleveland Metroparks",
    "key": "a7fdaafa-074c-4c86-8493-c48c1f678eb7",
    "numberSpecimens": 0,
    "active": true,
    "displayOnNHCPortal": true
  },
  {
    "latitude": 30.862,
    "longitude": 77.168,
    "name": "Botanical Survey of India",
    "key": "8d34d214-36fb-4b1f-bd02-cdc046835758",
    "numberSpecimens": 0,
    "active": true,
    "displayOnNHCPortal": true
  },
  {
    "latitude": 50.87761,
    "longitude": 12.085847,
    "name": "Museum für Naturkunde Gera",
    "key": "3d859f6f-b0d8-40d4-84d1-c654c2664eee",
    "numberSpecimens": 0,
    "active": true,
    "displayOnNHCPortal": true
  },
  {
    "latitude": 40.210282,
    "longitude": -8.424148,
    "name": "Universidade de Coimbra",
    "key": "92b86330-5223-4fde-8257-b27234b0c241",
    "numberSpecimens": 0,
    "active": true,
    "displayOnNHCPortal": true
  },